$GPGGA,042106.600,3158.7500,S,11549.0086,E,1,5,1.59,9.1,M,-29.4,M,,*6F
$GPGSA,A,3,21,29,25,31,05,,,,,,,,1.84,1.59,0.93*00
$GPGSV,3,1,09,21,71,292,48,25,48,041,38,29,47,129,47,42,44,040,39*7E
$GPGSV,3,2,09,31,36,287,17,18,21,005,,05,18,131,29,12,10,043,*73
$GPGSV,3,3,09,16,04,222,*41
$GPRMC,042106.600,A,3158.7500,S,11549.0086,E,0.02,0.00,100315,,,A*7B
$GPGGA,042106.800,3158.7500,S,11549.0086,E,1,5,1.59,9.1,M,-29.4,M,,*61
$GPGSA,A,3,21,29,25,31,05,,,,,,,,1.84,1.59,0.93*00
$GPGSV,3,1,09,21,71,292,48,25,48,041,38,29,47,129,47,42,44,040,39*7E
$GPGSV,3,2,09,31,36,287,17,18,21,005,,05,18,131,29,12,10,043,*73
$GPGSV,3,3,09,16,04,222,*41
$GPRMC,042106.800,A,3158.7500,S,11549.0086,E,0.01,0.00,100315,,,A*76
$GPGGA,042107.000,3158.7500,S,11549.0086,E,1,5,1.59,9.1,M,-29.4,M,,*68
$GPGSA,A,3,21,29,25,31,05,,,,,,,,1.84,1.59,0.93*00
$GPGSV,3,1,09,21,71,292,48,25,48,041,38,29,47,129,47,42,44,040,39*7E
$GPGSV,3,2,09,31,36,287,17,18,21,005,,05,18,131,29,12,10,043,*73
$GPGSV,3,3,09,16,04,222,*41
$GPRMC,042107.000,A,3158.7500,S,11549.0086,E,0.07,0.00,100315,,,A*79
$GPGGA,042107.200,3158.7500,S,11549.0086,E,1,5,1.59,9.1,M,-29.4,M,,*6A
$GPGSA,A,3,21,29,25,31,05,,,,,,,,1.84,1.59,0.93*00
$GPGSV,3,1,09,21,71,292,48,25,48,041,38,29,47,129,47,42,44,040,39*7E
$GPGSV,3,2,09,31,36,287,17,18,21,005,,05,18,131,29,12,10,043,*73
$GPGSV,3,3,09,16,04,222,*41
$GPRMC,042107.200,A,3158.7500,S,11549.0086,E,0.03,0.00,100315,,,A*7F
$GPGGA,042107.400,3158.7500,S,11549.0086,E,1,5,1.59,9.2,M,-29.4,M,,*6F
$GPGSA,A,3,21,29,25,31,05,,,,,,,,1.84,1.59,0.93*00
$GPGSV,3,1,09,21,71,292,48,25,48,041,38,29,47,129,47,42,44,040,38*7F
$GPGSV,3,2,09,31,36,287,17,18,21,005,,05,18,131,29,12,10,043,*73
$GPGSV,3,3,09,16,04,222,*41
$GPRMC,042107.400,A,3158.7500,S,11549.0086,E,0.01,0.00,100315,,,A*7B
$GPGGA,042107.600,3158.7500,S,11549.0086,E,1,5,1.59,9.2,M,-29.4,M,,*6D
$GPGSA,A,3,21,29,25,31,05,,,,,,,,1.84,1.59,0.93*00
$GPGSV,3,1,09,21,71,292,48,25,48,041,38,29,47,129,47,42,44,040,38*7F
$GPGSV,3,2,09,31,36,287,16,18,21,005,,05,18,131,29,12,10,043,*72
$GPGSV,3,3,09,16,04,222,*41
$GPRMC,042107.600,A,3158.7500,S,11549.0086,E,0.01,0.00,100315,,,A*79
$GPGGA,042107.800,3158.7500,S,11549.0086,E,1,5,1.59,9.2,M,-29.4,M,,*63
$GPGSA,A,3,21,29,25,31,05,,,,,,,,1.84,1.59,0.93*00
$GPGSV,3,1,09,21,71,292,48,25,48,041,38,29,47,129,47,42,44,040,38*7F
$GPGSV,3,2,09,31,36,287,16,18,21,005,,05,18,131,29,12,10,043,*72
$GPGSV,3,3,09,16,04,222,*41
$GPRMC,042107.800,A,3158.7500,S,11549.0086,E,0.01,0.00,100315,,,A*77
$GPGGA,042108.000,3158.7500,S,11549.0086,E,1,5,1.59,9.2,M,-29.4,M,,*64
$GPGSA,A,3,21,29,25,31,05,,,,,,,,1.84,1.59,0.93*00
$GPGSV,3,1,09,21,71,292,48,25,48,041,38,29,47,129,47,42,44,040,38*7F
$GPGSV,3,2,09,31,36,287,16,18,21,005,,05,18,131,29,12,10,043,*72
$GPGSV,3,3,09,16,04,222,*41
$GPRMC,042108.000,A,3158.7500,S,11549.0086,E,0.05,0.00,100315,,,A*74
$GPGGA,042108.200,3158.7500,S,11549.0086,E,1,5,1.59,9.2,M,-29.4,M,,*66
$GPGSA,A,3,21,29,25,31,05,,,,,,,,1.84,1.59,0.93*00
$GPGSV,3,1,09,21,71,292,48,25,48,041,38,29,47,129,47,42,44,040,38*7F
$GPGSV,3,2,09,31,36,287,16,18,21,005,,05,18,131,29,12,10,043,*72
$GPGSV,3,3,09,16,04,222,*41
$GPRMC,042108.200,A,3158.7500,S,11549.0086,E,0.02,0.00,100315,,,A*71
$GPGGA,042108.400,3158.7500,S,11549.0086,E,1,5,1.59,9.2,M,-29.4,M,,*60
$GPGSA,A,3,21,29,25,31,05,,,,,,,,1.84,1.59,0.93*00
$GPGSV,3,1,09,21,71,292,48,25,48,041,38,29,47,129,47,42,44,040,38*7F
$GPGSV,3,2,09,31,36,287,16,18,21,005,,05,18,131,29,12,10,043,*72
$GPGSV,3,3,09,16,04,222,*41
$GPRMC,042108.400,A,3158.7500,S,11549.0086,E,0.02,0.00,100315,,,A*77
$GPGGA,042108.600,3158.7500,S,11549.0086,E,1,5,1.59,9.2,M,-29.4,M,,*62
$GPGSA,A,3,21,29,25,31,05,,,,,,,,1.84,1.59,0.93*00
$GPGSV,3,1,09,21,71,292,48,25,48,041,38,29,47,129,47,42,44,040,38*7F
$GPGSV,3,2,09,31,36,287,16,18,21,005,,05,18,131,29,12,10,043,*72
$GPGSV,3,3,09,16,04,222,*41
$GPRMC,042108.600,A,3158.7500,S,11549.0086,E,0.02,0.00,100315,,,A*75
$GPGGA,042108.800,3158.7500,S,11549.0086,E,1,5,1.70,9.2,M,-29.4,M,,*67
$GPGSA,A,3,21,29,25,31,05,,,,,,,,3.06,1.70,2.54*0A
$GPGSV,3,1,09,21,71,292,48,25,48,041,38,29,47,129,47,42,44,040,38*7F
$GPGSV,3,2,09,31,36,287,16,18,21,005,,05,18,131,29,12,10,043,*72
$GPGSV,3,3,09,16,04,222,*41
$GPRMC,042108.800,A,3158.7500,S,11549.0086,E,0.08,0.00,100315,,,A*71
$GPGGA,042109.000,3158.7500,S,11549.0086,E,1,5,1.59,9.2,M,-29.4,M,,*65
$GPGSA,A,3,21,29,25,31,05,,,,,,,,1.84,1.59,0.93*00
$GPGSV,3,1,09,21,71,292,48,25,48,041,38,29,47,129,47,42,44,040,38*7F
$GPGSV,3,2,09,31,36,287,17,18,21,005,,05,18,131,29,12,10,043,*73
$GPGSV,3,3,09,16,04,222,*41
$GPRMC,042109.000,A,3158.7500,S,11549.0086,E,0.06,0.00,100315,,,A*76
$GPGGA,042109.200,3158.7500,S,11549.0086,E,1,5,1.58,9.2,M,-29.4,M,,*66
$GPGSA,A,3,21,29,25,31,05,,,,,,,,1.84,1.58,0.93*01
$GPGSV,3,1,09,21,71,292,48,25,48,041,38,29,47,129,47,42,44,040,38*7F
$GPGSV,3,2,09,31,36,287,18,18,21,005,,05,18,131,29,12,10,043,*7C
$GPGSV,3,3,09,16,04,222,*41
$GPRMC,042109.200,A,3158.7500,S,11549.0086,E,0.02,0.00,100315,,,A*70
$GPGGA,042109.400,3158.7500,S,11549.0086,E,1,5,1.59,9.2,M,-29.4,M,,*61
$GPGSA,A,3,21,29,25,31,05,,,,,,,,1.84,1.59,0.93*00
$GPGSV,3,1,09,21,71,292,48,25,48,041,38,29,47,129,47,42,44,040,38*7F
$GPGSV,3,2,09,31,36,287,18,18,21,005,,05,18,131,30,12,10,043,*74
$GPGSV,3,3,09,16,04,222,*41
$GPRMC,042109.400,A,3158.7500,S,11549.0086,E,0.02,0.00,100315,,,A*76
$GPGGA,042109.600,3158.7500,S,11549.0086,E,1,5,1.59,9.2,M,-29.4,M,,*63
$GPGSA,A,3,21,29,25,31,05,,,,,,,,1.84,1.59,0.93*00
$GPGSV,3,1,09,21,71,292,48,25,48,041,38,29,47,129,47,42,44,040,38*7F
$GPGSV,3,2,09,31,36,287,18,18,21,005,,05,18,131,30,12,10,043,*74
$GPGSV,3,3,09,16,04,222,*41
$GPRMC,042109.600,A,3158.7500,S,11549.0086,E,0.03,0.00,100315,,,A*75
$GPGGA,042109.800,3158.7500,S,11549.0086,E,1,5,1.59,9.2,M,-29.4,M,,*6D
$GPGSA,A,3,21,29,25,31,05,,,,,,,,1.84,1.59,0.93*00
$GPGSV,3,1,09,21,71,292,48,25,48,041,38,29,47,129,47,42,44,040,38*7F
$GPGSV,3,2,09,31,36,287,18,18,21,005,,05,18,131,30,12,10,043,*74
$GPGSV,3,3,09,16,04,222,*41
$GPRMC,042109.800,A,3158.7500,S,11549.0086,E,0.04,0.00,100315,,,A*7C
$GPGGA,042110.000,3158.7500,S,11549.0086,E,1,5,1.59,9.2,M,-29.4,M,,*6D
$GPGSA,A,3,21,29,25,31,05,,,,,,,,1.84,1.59,0.93*00
$GPGSV,3,1,09,21,71,292,48,25,48,041,38,29,47,129,47,42,44,040,38*7F
$GPGSV,3,2,09,31,36,287,18,18,21,005,,05,18,131,30,12,10,043,*74
$GPGSV,3,3,09,16,04,222,*41
$GPRMC,042110.000,A,3158.7500,S,11549.0086,E,0.02,0.00,100315,,,A*7A
$GPGGA,042110.200,3158.7500,S,11549.0086,E,1,5,1.58,9.2,M,-29.4,M,,*6E
$GPGSA,A,3,21,29,25,31,05,,,,,,,,1.84,1.58,0.93*01
$GPGSV,3,1,09,21,71,292,48,25,48,041,38,29,47,129,47,42,44,040,38*7F
$GPGSV,3,2,09,31,36,287,17,18,21,005,,05,18,131,30,12,10,043,*7B
$GPGSV,3,3,09,16,04,222,*41
$GPRMC,042110.200,A,3158.7500,S,11549.0086,E,0.03,0.00,100315,,,A*79
$GPGGA,042110.400,3158.7500,S,11549.0086,E,1,5,1.59,9.2,M,-29.4,M,,*69
$GPGSA,A,3,21,29,25,31,05,,,,,,,,1.84,1.59,0.93*00
$GPGSV,3,1,09,21,71,292,48,25,48,041,38,29,47,129,47,42,44,040,38*7F
$GPGSV,3,2,09,31,36,287,17,18,21,005,,05,18,131,30,12,10,043,*7B
$GPGSV,3,3,09,16,04,222,*41
$GPRMC,042110.400,A,3158.7500,S,11549.0086,E,0.01,0.00,100315,,,A*7D
$GPGGA,042110.600,3158.7500,S,11549.0086,E,1,5,1.59,9.2,M,-29.4,M,,*6B
$GPGSA,A,3,21,29,25,31,05,,,,,,,,1.84,1.59,0.93*00
$GPGSV,3,1,09,21,71,292,48,25,48,041,38,29,47,129,47,42,44,040,38*7F
$GPGSV,3,2,09,31,36,287,17,18,21,005,,05,18,131,30,12,10,043,*7B
$GPGSV,3,3,09,16,04,222,*41
$GPRMC,042110.600,A,3158.7500,S,11549.0086,E,0.01,0.00,100315,,,A*7F
$GPGGA,042110.800,3158.7500,S,11549.0086,E,1,5,1.59,9.2,M,-29.4,M,,*65
$GPGSA,A,3,21,29,25,31,05,,,,,,,,1.84,1.59,0.93*00
$GPGSV,3,1,09,21,71,292,48,25,48,041,38,29,47,129,47,42,44,040,38*7F
$GPGSV,3,2,09,31,36,287,17,18,21,005,,05,18,131,30,12,10,043,*7B
$GPGSV,3,3,09,16,04,222,*41
$GPRMC,042110.800,A,3158.7500,S,11549.0086,E,0.01,0.00,100315,,,A*71
$GPGGA,042111.000,3158.7500,S,11549.0086,E,1,5,1.59,9.2,M,-29.4,M,,*6C
$GPGSA,A,3,21,29,25,31,05,,,,,,,,1.84,1.59,0.93*00
$GPGSV,3,1,09,21,71,292,48,25,48,041,38,29,47,129,47,42,44,040,38*7F
$GPGSV,3,2,09,31,36,287,17,18,21,005,,05,18,131,30,12,10,043,*7B
$GPGSV,3,3,09,16,04,222,*41
$GPRMC,042111.000,A,3158.7500,S,11549.0086,E,0.05,0.00,100315,,,A*7C
$GPGGA,042111.200,3158.7500,S,11549.0086,E,1,5,1.59,9.2,M,-29.4,M,,*6E
$GPGSA,A,3,21,29,25,31,05,,,,,,,,1.84,1.59,0.93*00
$GPGSV,3,1,09,21,71,292,48,25,48,041,38,29,47,129,47,42,44,040,38*7F
$GPGSV,3,2,09,31,36,287,17,18,21,005,,05,18,131,30,12,10,043,*7B
$GPGSV,3,3,09,16,04,222,*41
$GPRMC,042111.200,A,3158.7500,S,11549.0086,E,0.02,0.00,100315,,,A*79
$GPGGA,042111.400,3158.7500,S,11549.0086,E,1,5,1.59,9.2,M,-29.4,M,,*68
$GPGSA,A,3,21,29,25,31,05,,,,,,,,1.84,1.59,0.93*00
$GPGSV,3,1,09,21,71,292,48,25,48,041,38,29,47,129,47,42,44,040,38*7F
$GPGSV,3,2,09,31,36,287,17,18,21,005,,05,18,131,30,12,10,043,*7B
$GPGSV,3,3,09,16,04,222,*41
$GPRMC,042111.400,A,3158.7500,S,11549.0086,E,0.03,0.00,100315,,,A*7E
$GPGGA,042111.600,3158.7500,S,11549.0086,E,1,5,1.59,9.2,M,-29.4,M,,*6A
$GPGSA,A,3,21,29,25,31,05,,,,,,,,1.84,1.59,0.93*00
$GPGSV,3,1,09,21,71,292,48,25,48,041,38,29,47,129,47,42,44,040,38*7F
$GPGSV,3,2,09,31,36,287,17,18,21,005,,05,18,131,30,12,10,043,*7B
$GPGSV,3,3,09,16,04,222,*41
$GPRMC,042111.600,A,3158.7500,S,11549.0086,E,0.02,0.00,100315,,,A*7D
$GPGGA,042111.800,3158.7500,S,11549.0086,E,1,5,1.70,9.2,M,-29.4,M,,*6F
$GPGSA,A,3,21,29,25,31,05,,,,,,,,3.06,1.70,2.54*0A
$GPGSV,3,1,09,21,71,292,48,25,48,041,38,29,47,129,47,42,44,040,38*7F
$GPGSV,3,2,09,31,36,287,17,18,21,005,,05,18,131,30,12,10,043,*7B
$GPGSV,3,3,09,16,04,222,*41
$GPRMC,042111.800,A,3158.7500,S,11549.0086,E,0.01,0.00,100315,,,A*70
$GPGGA,042112.000,3158.7500,S,11549.0086,E,1,5,1.58,9.2,M,-29.4,M,,*6E
$GPGSA,A,3,21,29,25,31,05,,,,,,,,1.84,1.58,0.93*01
$GPGSV,3,1,09,21,71,292,48,25,48,041,38,29,47,129,47,42,44,040,38*7F
$GPGSV,3,2,09,31,36,287,17,18,21,005,,05,18,131,30,12,10,043,*7B
$GPGSV,3,3,09,16,04,222,*41
$GPRMC,042112.000,A,3158.7500,S,11549.0086,E,0.03,0.00,100315,,,A*79
$GPGGA,042112.200,3158.7500,S,11549.0086,E,1,5,1.59,9.2,M,-29.4,M,,*6D
$GPGSA,A,3,21,29,25,31,05,,,,,,,,1.84,1.59,0.93*00
$GPGSV,3,1,09,21,71,292,48,25,48,041,38,29,47,129,47,42,44,040,38*7F
$GPGSV,3,2,09,31,36,287,17,18,21,005,,05,18,131,30,12,10,043,*7B
$GPGSV,3,3,09,16,04,222,*41
$GPRMC,042112.200,A,3158.7500,S,11549.0086,E,0.02,0.00,100315,,,A*7A
$GPGGA,042112.400,3158.7500,S,11549.0086,E,1,4,1.81,9.2,M,-29.4,M,,*6F
$GPGSA,A,3,21,29,25,31,,,,,,,,,2.05,1.81,0.97*0E
$GPGSV,3,1,09,21,71,292,48,25,48,041,38,29,47,129,47,42,44,040,38*7F
$GPGSV,3,2,09,31,36,287,17,18,21,005,,05,18,131,29,12,10,043,*73
$GPGSV,3,3,09,16,04,222,*41
$GPRMC,042112.400,A,3158.7500,S,11549.0086,E,0.03,0.00,100315,,,A*7D
$GPGGA,042112.600,3158.7500,S,11549.0086,E,1,4,1.81,9.2,M,-29.4,M,,*6D
$GPGSA,A,3,21,29,25,31,,,,,,,,,2.05,1.81,0.97*0E
$GPGSV,3,1,09,21,71,292,48,25,48,041,38,29,47,129,47,42,44,040,38*7F
$GPGSV,3,2,09,31,36,287,17,18,21,005,,05,18,131,29,12,10,043,*73
$GPGSV,3,3,09,16,04,222,*41
$GPRMC,042112.600,A,3158.7500,S,11549.0086,E,0.05,0.00,100315,,,A*79
$GPGGA,042112.800,3158.7500,S,11549.0086,E,1,5,1.59,9.2,M,-29.4,M,,*67
$GPGSA,A,3,21,29,25,31,05,,,,,,,,1.84,1.59,0.93*00
$GPGSV,3,1,09,21,71,292,48,25,48,041,38,29,47,129,47,42,44,040,38*7F
$GPGSV,3,2,09,31,36,287,18,18,21,005,,05,18,131,29,12,10,043,*7C
$GPGSV,3,3,09,16,04,222,*41
$GPRMC,042112.800,A,3158.7500,S,11549.0086,E,0.03,0.00,100315,,,A*71
$GPGGA,042113.000,3158.7500,S,11549.0086,E,1,5,1.58,9.2,M,-29.4,M,,*6F
$GPGSA,A,3,21,29,25,31,05,,,,,,,,1.84,1.58,0.93*01
$GPGSV,3,1,09,21,71,292,48,25,48,041,38,29,47,129,47,42,44,040,39*7E
$GPGSV,3,2,09,31,36,287,19,18,21,005,,05,18,131,29,12,10,043,*7D
$GPGSV,3,3,09,16,04,222,*41
$GPRMC,042113.000,A,3158.7500,S,11549.0086,E,0.03,0.00,100315,,,A*78
$GPGGA,042113.200,3158.7500,S,11549.0086,E,1,5,1.58,9.2,M,-29.4,M,,*6D
$GPGSA,A,3,21,29,25,31,05,,,,,,,,1.84,1.58,0.93*01
$GPGSV,3,1,09,21,71,292,48,25,48,041,38,29,47,129,46,42,44,040,38*7E
$GPGSV,3,2,09,31,36,287,19,18,21,005,,05,18,131,29,12,10,043,*7D
$GPGSV,3,3,09,16,04,222,*41
$GPRMC,042113.200,A,3158.7500,S,11549.0086,E,0.04,0.00,100315,,,A*7D
$GPGGA,042113.400,3158.7500,S,11549.0086,E,1,5,1.58,9.2,M,-29.4,M,,*6B
$GPGSA,A,3,21,29,25,31,05,,,,,,,,1.84,1.58,0.93*01
$GPGSV,3,1,09,21,71,292,48,25,48,041,38,29,47,129,46,42,44,040,38*7E
$GPGSV,3,2,09,31,36,287,18,18,21,005,,05,18,131,29,12,10,043,*7C
$GPGSV,3,3,09,16,04,222,*41
$GPRMC,042113.400,A,3158.7500,S,11549.0086,E,0.03,0.00,100315,,,A*7C
$GPGGA,042113.600,3158.7500,S,11549.0086,E,1,5,1.59,9.2,M,-29.4,M,,*68
$GPGSA,A,3,21,29,25,31,05,,,,,,,,1.84,1.59,0.93*00
$GPGSV,3,1,09,21,71,292,48,25,48,041,38,29,47,129,46,42,44,040,38*7E
$GPGSV,3,2,09,31,36,287,18,18,21,005,,05,18,131,29,12,10,043,*7C
$GPGSV,3,3,09,16,04,222,*41
$GPRMC,042113.600,A,3158.7500,S,11549.0086,E,0.03,0.00,100315,,,A*7E
$GPGGA,042113.800,3158.7500,S,11549.0086,E,1,5,1.59,9.2,M,-29.4,M,,*66
$GPGSA,A,3,21,29,25,31,05,,,,,,,,1.84,1.59,0.93*00
$GPGSV,3,1,09,21,71,292,48,25,48,041,38,29,47,129,46,42,44,040,38*7E
$GPGSV,3,2,09,31,36,287,18,18,21,005,,05,18,131,29,12,10,043,*7C
$GPGSV,3,3,09,16,04,222,*41
$GPRMC,042113.800,A,3158.7500,S,11549.0086,E,0.02,0.00,100315,,,A*71
$GPGGA,042114.000,3158.7500,S,11549.0086,E,1,4,1.81,9.2,M,-29.4,M,,*6D
$GPGSA,A,3,21,29,25,31,,,,,,,,,2.05,1.81,0.97*0E
$GPGSV,3,1,09,21,71,292,48,25,48,041,38,29,47,129,46,42,44,040,38*7E
$GPGSV,3,2,09,31,36,287,18,18,21,005,,05,18,131,28,12,10,043,*7D
$GPGSV,3,3,09,16,04,222,*41
$GPRMC,042114.000,A,3158.7500,S,11549.0086,E,0.05,0.00,100315,,,A*79
$GPGGA,042114.200,3158.7500,S,11549.0087,E,1,4,1.81,9.2,M,-29.4,M,,*6E
$GPGSA,A,3,21,29,25,31,,,,,,,,,2.05,1.81,0.97*0E
$GPGSV,3,1,09,21,71,292,48,25,48,041,38,29,47,129,46,42,44,040,38*7E
$GPGSV,3,2,09,31,36,287,18,18,21,005,,05,18,131,27,12,10,043,*72
$GPGSV,3,3,09,16,04,222,*41
$GPRMC,042114.200,A,3158.7500,S,11549.0087,E,0.04,0.00,100315,,,A*7B
$GPGGA,042114.400,3158.7500,S,11549.0087,E,1,4,1.81,9.2,M,-29.4,M,,*68
$GPGSA,A,3,21,29,25,31,,,,,,,,,2.05,1.81,0.97*0E
$GPGSV,3,1,09,21,71,292,48,25,48,041,38,29,47,129,46,42,44,040,38*7E
$GPGSV,3,2,09,31,36,287,18,18,21,005,,05,18,131,26,12,10,043,*73
$GPGSV,3,3,09,16,04,222,*41
$GPRMC,042114.400,A,3158.7500,S,11549.0087,E,0.03,0.00,100315,,,A*7A
$GPGGA,042114.600,3158.7500,S,11549.0086,E,1,4,1.81,9.2,M,-29.4,M,,*6B
$GPGSA,A,3,21,29,25,31,,,,,,,,,2.05,1.81,0.97*0E
$GPGSV,3,1,09,21,71,292,48,25,48,041,38,29,47,129,46,42,44,040,38*7E
$GPGSV,3,2,09,31,36,287,18,18,21,005,,05,18,131,25,12,10,043,*70
$GPGSV,3,3,09,16,04,222,*41
$GPRMC,042114.600,A,3158.7500,S,11549.0086,E,0.04,0.00,100315,,,A*7E
$GPGGA,042114.800,3158.7500,S,11549.0086,E,1,4,1.81,9.2,M,-29.4,M,,*65
$GPGSA,A,3,21,29,25,31,,,,,,,,,2.05,1.81,0.97*0E
$GPGSV,3,1,09,21,71,292,48,25,48,041,38,29,47,129,46,42,44,040,38*7E
$GPGSV,3,2,09,31,36,287,18,18,21,005,,05,18,131,25,12,10,043,*70
$GPGSV,3,3,09,16,04,222,*41
$GPRMC,042114.800,A,3158.7500,S,11549.0086,E,0.08,0.00,100315,,,A*7C
$GPGGA,042115.000,3158.7500,S,11549.0086,E,1,4,1.81,9.2,M,-29.4,M,,*6C
$GPGSA,A,3,21,29,25,31,,,,,,,,,2.05,1.81,0.97*0E
$GPGSV,3,1,09,21,71,292,48,25,48,041,38,29,47,129,46,42,44,040,38*7E
$GPGSV,3,2,09,31,36,287,18,18,21,005,,05,18,131,25,12,10,043,*70
$GPGSV,3,3,09,16,04,222,*41
$GPRMC,042115.000,A,3158.7500,S,11549.0086,E,0.02,0.00,100315,,,A*7F
$GPGGA,042115.200,3158.7500,S,11549.0086,E,1,4,1.81,9.2,M,-29.4,M,,*6E
$GPGSA,A,3,21,29,25,31,,,,,,,,,2.05,1.81,0.97*0E
$GPGSV,3,1,09,21,71,292,48,25,48,041,38,29,47,129,46,42,44,040,38*7E
$GPGSV,3,2,09,31,36,287,18,18,21,005,,05,18,131,25,12,10,043,*70
$GPGSV,3,3,09,16,04,222,*41
$GPRMC,042115.200,A,3158.7500,S,11549.0086,E,0.05,0.00,100315,,,A*7A
$GPGGA,042115.400,3158.7500,S,11549.0086,E,1,4,1.81,9.3,M,-29.4,M,,*69
$GPGSA,A,3,21,29,25,31,,,,,,,,,2.05,1.81,0.97*0E
$GPGSV,3,1,09,21,71,292,48,25,48,041,38,29,47,129,46,42,44,040,38*7E
$GPGSV,3,2,09,31,36,287,18,18,21,005,,05,18,131,25,12,10,043,*70
$GPGSV,3,3,09,16,04,222,*41
$GPRMC,042115.400,A,3158.7500,S,11549.0086,E,0.05,0.00,100315,,,A*7C
$GPGGA,042115.600,3158.7500,S,11549.0086,E,1,4,1.81,9.3,M,-29.4,M,,*6B
$GPGSA,A,3,21,29,25,31,,,,,,,,,2.05,1.81,0.97*0E
$GPGSV,3,1,09,21,71,292,48,25,48,041,38,29,47,129,46,42,44,040,38*7E
$GPGSV,3,2,09,31,36,287,18,18,21,005,,05,18,131,25,12,10,043,*70
$GPGSV,3,3,09,16,04,222,*41
$GPRMC,042115.600,A,3158.7500,S,11549.0086,E,0.02,0.00,100315,,,A*79
$GPGGA,042115.800,3158.7500,S,11549.0086,E,1,4,1.81,9.3,M,-29.4,M,,*65
$GPGSA,A,3,21,29,25,31,,,,,,,,,2.05,1.81,0.97*0E
$GPGSV,3,1,09,21,71,292,48,25,48,041,38,29,47,129,46,42,44,040,38*7E
$GPGSV,3,2,09,31,36,287,18,18,21,005,,05,17,131,26,12,10,043,*7C
$GPGSV,3,3,09,16,04,222,*41
$GPRMC,042115.800,A,3158.7500,S,11549.0086,E,0.01,0.00,100315,,,A*74
$GPGGA,042116.000,3158.7500,S,11549.0086,E,1,4,1.81,9.3,M,-29.4,M,,*6E
$GPGSA,A,3,21,29,25,31,,,,,,,,,2.05,1.81,0.97*0E
$GPGSV,3,1,09,21,71,292,48,25,48,041,38,29,47,129,46,42,44,040,38*7E
$GPGSV,3,2,09,31,36,287,17,18,21,005,,05,17,131,26,12,10,043,*73
$GPGSV,3,3,09,16,04,222,*41
$GPRMC,042116.000,A,3158.7500,S,11549.0086,E,0.02,0.00,100315,,,A*7C
$GPGGA,042116.200,3158.7500,S,11549.0086,E,1,4,1.81,9.3,M,-29.4,M,,*6C
$GPGSA,A,3,21,29,25,31,,,,,,,,,2.05,1.81,0.97*0E
$GPGSV,3,1,09,21,71,292,48,25,48,041,38,29,47,129,46,42,44,040,38*7E
$GPGSV,3,2,09,31,36,287,16,18,21,005,,05,17,131,26,12,10,043,*72
$GPGSV,3,3,09,16,04,222,*41
$GPRMC,042116.200,A,3158.7500,S,11549.0086,E,0.03,0.00,100315,,,A*7F
$GPGGA,042116.400,3158.7500,S,11549.0086,E,1,4,1.81,9.3,M,-29.4,M,,*6A
$GPGSA,A,3,21,29,25,31,,,,,,,,,2.05,1.81,0.97*0E
$GPGSV,3,1,09,21,71,292,48,25,48,041,38,29,47,129,46,42,44,040,37*71
$GPGSV,3,2,09,31,36,287,16,18,21,005,,05,17,131,26,12,10,043,*72
$GPGSV,3,3,09,16,04,222,*41
$GPRMC,042116.400,A,3158.7500,S,11549.0086,E,0.05,0.00,100315,,,A*7F
$GPGGA,042116.600,3158.7500,S,11549.0086,E,1,4,1.81,9.3,M,-29.4,M,,*68
$GPGSA,A,3,21,29,25,31,,,,,,,,,2.05,1.81,0.97*0E
$GPGSV,3,1,09,21,71,292,48,25,48,041,38,29,47,129,46,42,44,040,37*71
$GPGSV,3,2,09,31,36,287,16,18,21,005,,05,17,131,26,12,10,043,*72
$GPGSV,3,3,09,16,04,222,*41
$GPRMC,042116.600,A,3158.7500,S,11549.0086,E,0.03,0.00,100315,,,A*7B
$GPGGA,042116.800,3158.7500,S,11549.0086,E,1,4,1.81,9.3,M,-29.4,M,,*66
$GPGSA,A,3,21,29,25,31,,,,,,,,,2.05,1.81,0.97*0E
$GPGSV,3,1,09,21,71,292,48,25,48,041,38,29,47,129,46,42,44,040,37*71
$GPGSV,3,2,09,31,36,287,16,18,21,005,,05,17,131,26,12,10,043,*72
$GPGSV,3,3,09,16,04,222,*41
$GPRMC,042116.800,A,3158.7500,S,11549.0086,E,0.00,0.00,100315,,,A*76
$GPGGA,042117.000,3158.7500,S,11549.0086,E,1,4,1.81,9.3,M,-29.4,M,,*6F
$GPGSA,A,3,21,29,25,31,,,,,,,,,2.05,1.81,0.97*0E
$GPGSV,3,1,09,21,71,292,48,25,48,041,38,29,47,129,46,42,44,040,37*71
$GPGSV,3,2,09,31,36,287,16,18,21,005,,05,17,131,26,12,10,043,*72
$GPGSV,3,3,09,16,04,222,*41
$GPRMC,042117.000,A,3158.7500,S,11549.0086,E,0.02,0.00,100315,,,A*7D
$GPGGA,042117.200,3158.7500,S,11549.0086,E,1,4,1.81,9.3,M,-29.4,M,,*6D
$GPGSA,A,3,21,29,25,31,,,,,,,,,2.05,1.81,0.97*0E
$GPGSV,3,1,09,21,71,292,48,25,48,041,38,29,47,129,46,42,44,040,37*71
$GPGSV,3,2,09,31,36,287,16,18,21,005,,05,17,131,26,12,10,043,*72
$GPGSV,3,3,09,16,04,222,*41
$GPRMC,042117.200,A,3158.7500,S,11549.0086,E,0.01,0.00,100315,,,A*7C
$GPGGA,042117.400,3158.7500,S,11549.0086,E,1,4,1.81,9.3,M,-29.4,M,,*6B
$GPGSA,A,3,21,29,25,31,,,,,,,,,2.05,1.81,0.97*0E
$GPGSV,3,1,09,21,71,292,48,25,48,041,38,29,47,129,46,42,44,040,37*71
$GPGSV,3,2,09,31,36,287,16,18,21,005,,05,17,131,25,12,10,043,*71
$GPGSV,3,3,09,16,04,222,*41
$GPRMC,042117.400,A,3158.7500,S,11549.0086,E,0.01,0.00,100315,,,A*7A
$GPGGA,042117.600,3158.7500,S,11549.0086,E,1,4,1.81,9.3,M,-29.4,M,,*69
$GPGSA,A,3,21,29,25,31,,,,,,,,,2.05,1.81,0.97*0E
$GPGSV,3,1,09,21,71,292,48,25,48,041,38,29,47,129,46,42,44,040,37*71
$GPGSV,3,2,09,31,36,287,16,18,21,005,,05,17,131,25,12,10,043,*71
$GPGSV,3,3,09,16,04,222,*41
$GPRMC,042117.600,A,3158.7500,S,11549.0086,E,0.04,0.00,100315,,,A*7D
$GPGGA,042117.800,3158.7500,S,11549.0086,E,1,4,1.81,9.3,M,-29.4,M,,*67
$GPGSA,A,3,21,29,25,31,,,,,,,,,2.05,1.81,0.97*0E
$GPGSV,3,1,09,21,71,292,48,25,48,041,38,29,47,129,46,42,44,040,37*71
$GPGSV,3,2,09,31,36,287,16,18,21,005,,05,17,131,25,12,10,043,*71
$GPGSV,3,3,09,16,04,222,*41
$GPRMC,042117.800,A,3158.7500,S,11549.0086,E,0.04,0.00,100315,,,A*73
$GPGGA,042118.000,3158.7500,S,11549.0086,E,1,4,1.82,9.3,M,-29.4,M,,*63
$GPGSA,A,3,21,29,25,31,,,,,,,,,4.36,1.82,3.96*09
$GPGSV,3,1,09,21,71,292,48,25,48,041,38,29,47,129,46,42,44,040,38*7E
$GPGSV,3,2,09,31,36,287,16,18,21,005,,05,17,131,24,12,10,043,*70
$GPGSV,3,3,09,16,04,222,*41
$GPRMC,042118.000,A,3158.7500,S,11549.0086,E,0.07,0.00,100315,,,A*77
$GPGGA,042118.200,3158.7501,S,11549.0086,E,1,4,1.81,9.3,M,-29.4,M,,*63
$GPGSA,A,3,21,29,25,31,,,,,,,,,2.05,1.81,0.97*0E
$GPGSV,3,1,09,21,71,292,48,25,48,041,38,29,47,129,46,42,44,040,38*7E
$GPGSV,3,2,09,31,36,287,16,18,21,005,,05,17,131,24,12,10,043,*70
$GPGSV,3,3,09,16,04,222,*41
$GPRMC,042118.200,A,3158.7501,S,11549.0086,E,0.01,0.00,100315,,,A*72
$GPGGA,042118.400,3158.7501,S,11549.0086,E,1,4,1.81,9.3,M,-29.4,M,,*65
$GPGSA,A,3,21,29,25,31,,,,,,,,,2.05,1.81,0.97*0E
$GPGSV,3,1,09,21,71,292,48,25,48,041,38,29,47,129,46,42,44,040,38*7E
$GPGSV,3,2,09,31,36,287,16,18,21,005,,05,17,131,24,12,10,043,*70
$GPGSV,3,3,09,16,04,222,*41
$GPRMC,042118.400,A,3158.7501,S,11549.0086,E,0.02,0.00,100315,,,A*77
$GPGGA,042118.600,3158.7501,S,11549.0086,E,1,4,1.81,9.3,M,-29.4,M,,*67
$GPGSA,A,3,21,29,25,31,,,,,,,,,2.05,1.81,0.97*0E
$GPGSV,3,1,09,21,71,292,48,25,48,041,38,29,47,129,46,42,44,040,38*7E
$GPGSV,3,2,09,31,36,287,16,18,21,005,,05,17,131,24,12,10,043,*70
$GPGSV,3,3,09,16,04,222,*41
$GPRMC,042118.600,A,3158.7501,S,11549.0086,E,0.01,0.00,100315,,,A*76
$GPGGA,042118.800,3158.7501,S,11549.0086,E,1,4,1.81,9.3,M,-29.4,M,,*69
$GPGSA,A,3,21,29,25,31,,,,,,,,,2.05,1.81,0.97*0E
$GPGSV,3,1,09,21,71,292,48,25,48,041,38,29,47,129,46,42,44,040,38*7E
$GPGSV,3,2,09,31,36,287,16,18,21,005,,05,17,131,24,12,10,043,*70
$GPGSV,3,3,09,16,04,222,*41
$GPRMC,042118.800,A,3158.7501,S,11549.0086,E,0.03,0.00,100315,,,A*7A
$GPGGA,042119.000,3158.7501,S,11549.0086,E,1,4,1.81,9.3,M,-29.4,M,,*60
$GPGSA,A,3,21,29,25,31,,,,,,,,,2.05,1.81,0.97*0E
$GPGSV,3,1,09,21,71,292,48,25,48,041,38,29,47,129,46,42,44,040,38*7E
$GPGSV,3,2,09,31,36,287,16,18,21,005,,05,17,131,25,12,10,043,*71
$GPGSV,3,3,09,16,04,222,*41
$GPRMC,042119.000,A,3158.7501,S,11549.0086,E,0.04,0.00,100315,,,A*74
$GPGGA,042119.200,3158.7501,S,11549.0086,E,1,4,1.81,9.3,M,-29.4,M,,*62
$GPGSA,A,3,21,29,25,31,,,,,,,,,2.05,1.81,0.97*0E
$GPGSV,3,1,09,21,71,292,48,25,48,041,38,29,47,129,46,42,44,040,38*7E
$GPGSV,3,2,09,31,36,287,16,18,21,005,,05,17,131,25,12,10,043,*71
$GPGSV,3,3,09,16,04,222,*41
$GPRMC,042119.200,A,3158.7501,S,11549.0086,E,0.04,0.00,100315,,,A*76
$GPGGA,042119.400,3158.7501,S,11549.0086,E,2,4,1.81,9.3,M,-29.4,M,0000,0000*67
$GPGSA,A,3,21,29,25,31,,,,,,,,,2.05,1.81,0.97*0E
$GPGSV,3,1,09,21,71,292,48,25,48,041,38,29,47,129,46,42,44,040,38*7E
$GPGSV,3,2,09,31,36,287,16,18,21,005,,05,17,131,26,12,10,043,*72
$GPGSV,3,3,09,16,04,222,*41
$GPRMC,042119.400,A,3158.7501,S,11549.0086,E,0.05,0.00,100315,,,D*74
$GPGGA,042119.600,3158.7502,S,11549.0086,E,2,4,1.81,9.4,M,-29.4,M,0000,0000*61
$GPGSA,A,3,21,29,25,31,,,,,,,,,2.05,1.81,0.97*0E
$GPGSV,3,1,09,21,71,292,48,25,48,041,38,29,47,129,46,42,44,040,38*7E
$GPGSV,3,2,09,31,36,287,16,18,21,005,,05,17,131,26,12,10,043,*72
$GPGSV,3,3,09,16,04,222,*41
$GPRMC,042119.600,A,3158.7502,S,11549.0086,E,0.05,0.00,100315,,,D*75
$GPGGA,042119.800,3158.7502,S,11549.0086,E,2,4,1.81,9.5,M,-29.4,M,0000,0000*6E
$GPGSA,A,3,21,29,25,31,,,,,,,,,2.05,1.81,0.97*0E
$GPGSV,3,1,09,21,71,292,48,25,48,041,38,29,47,129,46,42,44,040,38*7E
$GPGSV,3,2,09,31,36,287,16,18,21,005,,05,17,131,26,12,10,043,*72
$GPGSV,3,3,09,16,04,222,*41
$GPRMC,042119.800,A,3158.7502,S,11549.0086,E,0.06,0.00,100315,,,D*78
$GPGGA,042120.000,3158.7503,S,11549.0086,E,2,4,1.81,9.5,M,-29.4,M,0000,0000*6D
$GPGSA,A,3,21,29,25,31,,,,,,,,,2.05,1.81,0.97*0E
$GPGSV,3,1,09,21,71,292,48,25,48,041,38,29,47,129,46,42,44,040,38*7E
$GPGSV,3,2,09,31,36,287,16,18,21,005,,05,17,131,26,12,10,043,*72
$GPGSV,3,3,09,16,04,222,*41
$GPRMC,042120.000,A,3158.7503,S,11549.0086,E,0.05,0.00,100315,,,D*78
$GPGGA,042120.200,3158.7503,S,11549.0086,E,2,4,1.81,9.6,M,-29.4,M,0000,0000*6C
$GPGSA,A,3,21,29,25,31,,,,,,,,,2.05,1.81,0.97*0E
$GPGSV,3,1,09,21,71,292,48,25,48,041,38,29,47,129,46,42,44,040,38*7E
$GPGSV,3,2,09,31,36,287,16,18,21,005,,05,17,131,26,12,10,043,*72
$GPGSV,3,3,09,16,04,222,*41
$GPRMC,042120.200,A,3158.7503,S,11549.0086,E,0.07,0.00,100315,,,D*78
$GPGGA,042120.400,3158.7504,S,11549.0086,E,2,4,1.81,9.7,M,-29.4,M,0000,0000*6C
$GPGSA,A,3,21,29,25,31,,,,,,,,,2.05,1.81,0.97*0E
$GPGSV,3,1,09,21,71,292,48,25,48,041,38,29,47,129,46,42,44,040,38*7E
$GPGSV,3,2,09,31,36,287,16,18,21,005,,05,17,131,26,12,10,043,*72
$GPGSV,3,3,09,16,04,222,*41
$GPRMC,042120.400,A,3158.7504,S,11549.0086,E,0.05,0.00,100315,,,D*7B
$GPGGA,042120.600,3158.7505,S,11549.0086,E,2,4,1.81,9.7,M,-29.4,M,0000,0000*6F
$GPGSA,A,3,21,29,25,31,,,,,,,,,2.05,1.81,0.97*0E
$GPGSV,3,1,09,21,71,292,48,25,48,041,38,29,47,129,46,42,44,040,38*7E
$GPGSV,3,2,09,31,36,287,16,18,21,005,,05,17,131,26,12,10,043,*72
$GPGSV,3,3,09,16,04,222,*41
$GPRMC,042120.600,A,3158.7505,S,11549.0086,E,0.05,0.00,100315,,,D*78
$GPGGA,042120.800,3158.7505,S,11549.0085,E,2,4,1.81,9.8,M,-29.4,M,0000,0000*6D
$GPGSA,A,3,21,29,25,31,,,,,,,,,2.05,1.81,0.97*0E
$GPGSV,3,1,09,21,71,292,48,25,48,041,38,29,47,129,46,42,44,040,38*7E
$GPGSV,3,2,09,31,36,287,16,18,21,005,,05,17,131,26,12,10,043,*72
$GPGSV,3,3,09,16,04,222,*41
$GPRMC,042120.800,A,3158.7505,S,11549.0085,E,0.04,0.00,100315,,,D*74
$GPGGA,042121.000,3158.7506,S,11549.0086,E,2,4,1.81,9.8,M,-29.4,M,0000,0000*64
$GPGSA,A,3,21,29,25,31,,,,,,,,,2.05,1.81,0.97*0E
$GPGSV,3,1,09,21,71,292,48,25,48,041,38,29,47,129,46,42,44,040,37*71
$GPGSV,3,2,09,31,36,287,16,18,21,005,,05,17,131,26,12,10,043,*72
$GPGSV,3,3,09,16,04,222,*41
$GPRMC,042121.000,A,3158.7506,S,11549.0086,E,0.03,0.00,100315,,,D*7A
$GPGGA,042121.200,3158.7506,S,11549.0085,E,2,4,1.81,9.9,M,-29.4,M,0000,0000*64
$GPGSA,A,3,21,29,25,31,,,,,,,,,2.05,1.81,0.97*0E
$GPGSV,3,1,09,21,71,292,48,25,48,041,38,29,47,129,46,42,44,040,37*71
$GPGSV,3,2,09,31,36,287,17,18,21,005,,05,17,131,26,12,10,043,*73
$GPGSV,3,3,09,16,04,222,*41
$GPRMC,042121.200,A,3158.7506,S,11549.0085,E,0.02,0.00,100315,,,D*7A
$GPGGA,042121.400,3158.7506,S,11549.0085,E,2,4,1.81,9.9,M,-29.4,M,0000,0000*62
$GPGSA,A,3,21,29,25,31,,,,,,,,,2.05,1.81,0.97*0E
$GPGSV,3,1,09,21,71,292,48,25,48,041,38,29,47,129,46,42,44,040,37*71
$GPGSV,3,2,09,31,36,287,17,18,21,005,,05,17,131,26,12,10,043,*73
$GPGSV,3,3,09,16,04,222,*41
$GPRMC,042121.400,A,3158.7506,S,11549.0085,E,0.03,0.00,100315,,,D*7D
$GPGGA,042121.600,3158.7507,S,11549.0085,E,2,4,1.81,10.0,M,-29.4,M,0000,0000*50
$GPGSA,A,3,21,29,25,31,,,,,,,,,2.05,1.81,0.97*0E
$GPGSV,3,1,09,21,71,292,48,25,48,041,38,29,47,129,46,42,44,040,38*7E
$GPGSV,3,2,09,31,36,287,17,18,21,005,,05,17,131,26,12,10,043,*73
$GPGSV,3,3,09,16,04,222,*41
$GPRMC,042121.600,A,3158.7507,S,11549.0085,E,0.05,0.00,100315,,,D*78
$GPGGA,042121.800,3158.7507,S,11549.0085,E,2,4,1.81,10.0,M,-29.4,M,0000,0000*5E
$GPGSA,A,3,21,29,25,31,,,,,,,,,2.05,1.81,0.97*0E
$GPGSV,3,1,09,21,71,292,48,25,48,041,38,29,47,129,46,42,44,040,38*7E
$GPGSV,3,2,09,31,36,287,17,18,21,005,,05,17,131,26,12,10,043,*73
$GPGSV,3,3,09,16,04,222,*41
$GPRMC,042121.800,A,3158.7507,S,11549.0085,E,0.06,0.00,100315,,,D*75
$GPGGA,042122.000,3158.7508,S,11549.0085,E,2,4,1.81,10.1,M,-29.4,M,0000,0000*5B
$GPGSA,A,3,21,29,25,31,,,,,,,,,2.05,1.81,0.97*0E
$GPGSV,3,1,09,21,71,292,48,25,48,041,38,29,47,129,46,42,44,040,38*7E
$GPGSV,3,2,09,31,36,287,17,18,21,005,,05,17,131,26,12,10,043,*73
$GPGSV,3,3,09,16,04,222,*41
$GPRMC,042122.000,A,3158.7508,S,11549.0085,E,0.09,0.00,100315,,,D*7E
$GPGGA,042122.200,3158.7508,S,11549.0084,E,2,4,1.81,10.2,M,-29.4,M,0000,0000*5B
$GPGSA,A,3,21,29,25,31,,,,,,,,,2.05,1.81,0.97*0E
$GPGSV,3,1,09,21,71,292,48,25,48,041,38,29,47,129,46,42,44,040,38*7E
$GPGSV,3,2,09,31,36,287,17,18,21,005,,05,17,131,26,12,10,043,*73
$GPGSV,3,3,09,16,04,222,*41
$GPRMC,042122.200,A,3158.7508,S,11549.0084,E,0.10,0.00,100315,,,D*75
$GPGGA,042122.400,3158.7509,S,11549.0084,E,2,5,1.58,10.0,M,-29.4,M,0000,0000*5B
$GPGSA,A,3,21,29,25,31,05,,,,,,,,1.84,1.58,0.93*01
$GPGSV,3,1,09,21,71,292,48,25,48,041,38,29,47,129,46,42,44,040,38*7E
$GPGSV,3,2,09,31,36,287,19,18,21,005,,05,17,131,27,12,10,043,*7C
$GPGSV,3,3,09,16,04,222,*41
$GPRMC,042122.400,A,3158.7509,S,11549.0084,E,0.10,0.00,100315,,,D*72
$GPGGA,042122.600,3158.7510,S,11549.0084,E,2,5,1.58,10.0,M,-29.4,M,0000,0000*51
$GPGSA,A,3,21,29,25,31,05,,,,,,,,1.84,1.58,0.93*01
$GPGSV,3,1,09,21,71,292,48,25,48,041,38,29,47,129,46,42,44,040,38*7E
$GPGSV,3,2,09,31,36,287,20,18,21,005,,05,17,131,28,12,10,043,*79
$GPGSV,3,3,09,16,04,222,*41
$GPRMC,042122.600,A,3158.7510,S,11549.0084,E,0.09,0.00,100315,,,D*70
$GPGGA,042122.800,3158.7511,S,11549.0083,E,2,5,1.58,9.9,M,-29.4,M,0000,0000*68
$GPGSA,A,3,21,29,25,31,05,,,,,,,,1.84,1.58,0.93*01
$GPGSV,3,1,09,21,71,292,48,25,48,041,38,29,47,129,46,42,44,040,38*7E
$GPGSV,3,2,09,31,36,287,21,18,21,005,,05,17,131,28,12,10,043,*78
$GPGSV,3,3,09,16,04,222,*41
$GPRMC,042122.800,A,3158.7511,S,11549.0083,E,0.09,0.00,100315,,,D*78
$GPGGA,042123.000,3158.7511,S,11549.0083,E,2,5,1.58,9.9,M,-29.4,M,0000,0000*61
$GPGSA,A,3,21,29,25,31,05,,,,,,,,1.84,1.58,0.93*01
$GPGSV,3,1,09,21,71,292,48,25,48,041,38,29,47,129,46,42,44,040,38*7E
$GPGSV,3,2,09,31,36,287,22,18,21,005,,05,17,131,28,12,10,043,*7B
$GPGSV,3,3,09,16,04,222,*41
$GPRMC,042123.000,A,3158.7511,S,11549.0083,E,0.09,0.00,100315,,,D*71
$GPGGA,042123.200,3158.7512,S,11549.0083,E,2,5,1.58,9.8,M,-29.4,M,0000,0000*61
$GPGSA,A,3,21,29,25,31,05,,,,,,,,1.84,1.58,0.93*01
$GPGSV,3,1,09,21,71,292,48,25,48,041,38,29,47,129,46,42,44,040,38*7E
$GPGSV,3,2,09,31,36,287,21,18,21,005,,05,17,131,28,12,10,043,*78
$GPGSV,3,3,09,16,04,222,*41
$GPRMC,042123.200,A,3158.7512,S,11549.0083,E,0.08,0.00,100315,,,D*71
$GPGGA,042123.400,3158.7512,S,11549.0083,E,2,4,1.81,9.9,M,-29.4,M,0000,0000*63
$GPGSA,A,3,21,29,25,31,,,,,,,,,2.05,1.81,0.97*0E
$GPGSV,3,1,09,21,71,292,48,25,48,041,38,29,47,129,46,42,44,040,38*7E
$GPGSV,3,2,09,31,36,287,20,18,21,005,,05,17,131,28,12,10,043,*79
$GPGSV,3,3,09,16,04,222,*41
$GPRMC,042123.400,A,3158.7512,S,11549.0083,E,0.08,0.00,100315,,,D*77
$GPGGA,042123.600,3158.7513,S,11549.0083,E,2,4,1.81,9.9,M,-29.4,M,0000,0000*60
$GPGSA,A,3,21,29,25,31,,,,,,,,,2.05,1.81,0.97*0E
$GPGSV,3,1,09,21,71,292,48,25,48,041,38,29,47,129,46,42,44,040,38*7E
$GPGSV,3,2,09,31,36,287,20,18,21,005,,05,17,131,28,12,10,043,*79
$GPGSV,3,3,09,16,04,222,*41
$GPRMC,042123.600,A,3158.7513,S,11549.0083,E,0.09,0.00,100315,,,D*75
$GPGGA,042123.800,3158.7513,S,11549.0083,E,2,4,1.81,10.0,M,-29.4,M,0000,0000*5F
$GPGSA,A,3,21,29,25,31,,,,,,,,,2.05,1.81,0.97*0E
$GPGSV,3,1,09,21,71,292,48,25,48,041,38,29,47,129,46,42,44,040,38*7E
$GPGSV,3,2,09,31,36,287,21,18,21,005,,05,17,131,28,12,10,043,*78
$GPGSV,3,3,09,16,04,222,*41
$GPRMC,042123.800,A,3158.7513,S,11549.0083,E,0.09,0.00,100315,,,D*7B
$GPGGA,042124.000,3158.7513,S,11549.0083,E,2,5,1.58,9.9,M,-29.4,M,0000,0000*64
$GPGSA,A,3,21,29,25,31,05,,,,,,,,1.84,1.58,0.93*01
$GPGSV,3,1,09,21,71,292,48,25,48,041,38,29,47,129,46,42,44,040,38*7E
$GPGSV,3,2,09,31,36,287,21,18,21,005,,05,17,131,29,12,10,043,*79
$GPGSV,3,3,09,16,04,222,*41
$GPRMC,042124.000,A,3158.7513,S,11549.0083,E,0.10,0.00,100315,,,D*7C
$GPGGA,042124.200,3158.7514,S,11549.0083,E,2,5,1.58,9.8,M,-29.4,M,0000,0000*60
$GPGSA,A,3,21,29,25,31,05,,,,,,,,1.84,1.58,0.93*01
$GPGSV,3,1,09,21,71,292,48,25,48,041,38,29,47,129,46,42,44,040,37*71
$GPGSV,3,2,09,31,36,287,22,18,21,005,,05,17,131,29,12,10,043,*7A
$GPGSV,3,3,09,16,04,222,*41
$GPRMC,042124.200,A,3158.7514,S,11549.0083,E,0.11,0.00,100315,,,D*78
$GPGGA,042124.400,3158.7514,S,11549.0083,E,2,5,1.58,9.7,M,-29.4,M,0000,0000*69
$GPGSA,A,3,21,29,25,31,05,,,,,,,,1.84,1.58,0.93*01
$GPGSV,3,1,09,21,71,292,48,25,48,041,38,29,47,129,46,42,44,040,37*71
$GPGSV,3,2,09,31,36,287,23,18,21,005,,05,17,131,30,12,10,043,*73
$GPGSV,3,3,09,16,04,222,*41
$GPRMC,042124.400,A,3158.7514,S,11549.0083,E,0.11,0.00,100315,,,D*7E
$GPGGA,042124.600,3158.7515,S,11549.0083,E,2,5,1.58,9.6,M,-29.4,M,0000,0000*6B
$GPGSA,A,3,21,29,25,31,05,,,,,,,,1.84,1.58,0.93*01
$GPGSV,3,1,09,21,71,292,48,25,48,041,38,29,47,129,46,42,44,040,37*71
$GPGSV,3,2,09,31,36,287,24,18,21,005,,05,17,131,31,12,10,043,*75
$GPGSV,3,3,09,16,04,222,*41
$GPRMC,042124.600,A,3158.7515,S,11549.0083,E,0.11,0.00,100315,,,D*7D
$GPGGA,042124.800,3158.7515,S,11549.0082,E,2,5,1.58,9.6,M,-29.4,M,0000,0000*64
$GPGSA,A,3,21,29,25,31,05,,,,,,,,1.84,1.58,0.93*01
$GPGSV,3,1,09,21,71,292,48,25,48,041,38,29,47,129,46,42,44,040,37*71
$GPGSV,3,2,09,31,36,287,24,18,22,005,,05,17,131,31,12,10,043,*76
$GPGSV,3,3,09,16,04,222,*41
$GPRMC,042124.800,A,3158.7515,S,11549.0082,E,0.10,0.00,100315,,,D*73
$GPGGA,042125.000,3158.7516,S,11549.0082,E,2,5,1.58,9.6,M,-29.4,M,0000,0000*6E
$GPGSA,A,3,21,29,25,31,05,,,,,,,,1.84,1.58,0.93*01
$GPGSV,3,1,09,21,71,292,48,25,48,041,38,29,47,129,46,42,44,040,37*71
$GPGSV,3,2,09,31,36,287,24,18,22,005,,05,17,131,31,12,10,043,*76
$GPGSV,3,3,09,16,04,222,*41
$GPRMC,042125.000,A,3158.7516,S,11549.0082,E,0.10,0.00,100315,,,D*79
$GPGGA,042125.200,3158.7516,S,11549.0082,E,2,5,1.58,9.7,M,-29.4,M,0000,0000*6D
$GPGSA,A,3,21,29,25,31,05,,,,,,,,1.84,1.58,0.93*01
$GPGSV,3,1,09,21,71,292,48,25,48,041,38,29,47,129,46,42,44,040,37*71
$GPGSV,3,2,09,31,36,287,25,18,22,005,,05,17,131,31,12,10,043,*77
$GPGSV,3,3,09,16,04,222,*41
$GPRMC,042125.200,A,3158.7516,S,11549.0082,E,0.10,0.00,100315,,,D*7B
$GPGGA,042125.400,3158.7516,S,11549.0082,E,2,5,1.58,9.7,M,-29.4,M,0000,0000*6B
$GPGSA,A,3,21,29,25,31,05,,,,,,,,1.84,1.58,0.93*01
$GPGSV,3,1,09,21,71,291,48,25,48,041,38,29,47,129,46,42,44,040,37*72
$GPGSV,3,2,09,31,36,287,26,18,22,005,,05,17,131,31,12,10,043,*74
$GPGSV,3,3,09,16,04,222,*41
$GPRMC,042125.400,A,3158.7516,S,11549.0082,E,0.10,0.00,100315,,,D*7D
$GPGGA,042125.600,3158.7517,S,11549.0082,E,2,5,1.58,9.7,M,-29.4,M,0000,0000*68
$GPGSA,A,3,21,29,25,31,05,,,,,,,,1.84,1.58,0.93*01
$GPGSV,3,1,09,21,71,291,48,25,48,041,38,29,47,129,46,42,44,040,37*72
$GPGSV,3,2,09,31,36,287,27,18,22,005,,05,17,131,31,12,10,043,*75
$GPGSV,3,3,09,16,04,222,*41
$GPRMC,042125.600,A,3158.7517,S,11549.0082,E,0.09,0.00,100315,,,D*76
$GPGGA,042125.800,3158.7517,S,11549.0082,E,2,5,1.58,9.7,M,-29.4,M,0000,0000*66
$GPGSA,A,3,21,29,25,31,05,,,,,,,,1.84,1.58,0.93*01
$GPGSV,3,1,09,21,71,291,48,25,48,041,38,29,47,129,46,42,44,040,37*72
$GPGSV,3,2,09,31,36,287,27,18,22,005,,05,17,131,31,12,10,043,*75
$GPGSV,3,3,09,16,04,222,*41
$GPRMC,042125.800,A,3158.7517,S,11549.0082,E,0.09,0.00,100315,,,D*78
$GPGGA,042126.000,3158.7517,S,11549.0082,E,2,5,1.58,9.6,M,-29.4,M,0000,0000*6C
$GPGSA,A,3,21,29,25,31,05,,,,,,,,1.84,1.58,0.93*01
$GPGSV,3,1,09,21,71,291,48,25,48,041,38,29,47,129,46,42,44,040,37*72
$GPGSV,3,2,09,31,36,287,27,18,22,005,,05,17,131,32,12,10,043,*76
$GPGSV,3,3,09,16,04,222,*41
$GPRMC,042126.000,A,3158.7517,S,11549.0082,E,0.09,0.00,100315,,,D*73
$GPGGA,042126.200,3158.7518,S,11549.0081,E,2,5,1.58,9.4,M,-29.4,M,0000,0000*60
$GPGSA,A,3,21,29,25,31,05,,,,,,,,1.84,1.58,0.93*01
$GPGSV,3,1,09,21,71,291,48,25,48,041,38,29,47,129,46,42,44,040,37*72
$GPGSV,3,2,09,31,36,287,27,18,22,005,,05,17,131,32,12,10,043,*76
$GPGSV,3,3,09,16,04,222,*41
$GPRMC,042126.200,A,3158.7518,S,11549.0081,E,0.09,0.00,100315,,,D*7D
$GPGGA,042126.400,3158.7518,S,11549.0081,E,2,5,1.58,9.4,M,-29.4,M,0000,0000*66
$GPGSA,A,3,21,29,25,31,05,,,,,,,,1.84,1.58,0.93*01
$GPGSV,3,1,09,21,71,291,48,25,48,041,38,29,47,129,46,42,44,040,37*72
$GPGSV,3,2,09,31,36,287,27,18,22,005,,05,17,131,32,12,10,043,*76
$GPGSV,3,3,09,16,04,222,*41
$GPRMC,042126.400,A,3158.7518,S,11549.0081,E,0.09,0.00,100315,,,D*7B
$GPGGA,042126.600,3158.7519,S,11549.0081,E,2,5,1.70,9.4,M,-29.4,M,0000,0000*6F
$GPGSA,A,3,21,29,25,31,05,,,,,,,,3.05,1.70,2.53*0E
$GPGSV,3,1,09,21,71,291,48,25,48,041,38,29,47,129,46,42,44,040,37*72
$GPGSV,3,2,09,31,36,287,27,18,22,005,,05,17,131,32,12,10,043,*76
$GPGSV,3,3,09,16,04,222,*41
$GPRMC,042126.600,A,3158.7519,S,11549.0081,E,0.07,0.00,100315,,,D*76
$GPGGA,042126.800,3158.7519,S,11549.0080,E,2,5,1.58,9.1,M,-29.4,M,0000,0000*6F
$GPGSA,A,3,21,29,25,31,05,,,,,,,,1.84,1.58,0.93*01
$GPGSV,3,1,09,21,71,291,48,25,48,041,38,29,47,129,46,42,44,040,37*72
$GPGSV,3,2,09,31,36,287,28,18,22,005,,05,17,131,32,12,10,043,*79
$GPGSV,3,3,09,16,04,222,*41
$GPRMC,042126.800,A,3158.7519,S,11549.0080,E,0.05,0.00,100315,,,D*7B
$GPGGA,042127.000,3158.7520,S,11549.0080,E,2,5,1.58,9.1,M,-29.4,M,0000,0000*6C
$GPGSA,A,3,21,29,25,31,05,,,,,,,,1.84,1.58,0.93*01
$GPGSV,3,1,09,21,71,291,48,25,48,041,38,29,47,129,46,42,44,040,37*72
$GPGSV,3,2,09,31,36,287,28,18,22,005,,05,17,131,32,12,10,043,*79
$GPGSV,3,3,09,16,04,222,*41
$GPRMC,042127.000,A,3158.7520,S,11549.0080,E,0.03,0.00,100315,,,D*7E
$GPGGA,042127.200,3158.7520,S,11549.0080,E,2,5,1.58,9.1,M,-29.4,M,0000,0000*6E
$GPGSA,A,3,21,29,25,31,05,,,,,,,,1.84,1.58,0.93*01
$GPGSV,3,1,09,21,71,291,48,25,48,041,38,29,47,129,46,42,44,040,37*72
$GPGSV,3,2,09,31,36,287,28,18,22,005,,05,17,131,32,12,10,043,*79
$GPGSV,3,3,09,16,04,222,*41
$GPRMC,042127.200,A,3158.7520,S,11549.0080,E,0.03,0.00,100315,,,D*7C
$GPGGA,042127.400,3158.7521,S,11549.0080,E,2,5,1.58,9.1,M,-29.4,M,0000,0000*69
$GPGSA,A,3,21,29,25,31,05,,,,,,,,1.84,1.58,0.93*01
$GPGSV,3,1,09,21,71,291,48,25,48,041,38,29,47,129,46,42,44,040,37*72
$GPGSV,3,2,09,31,36,287,28,18,22,005,,05,17,131,32,12,10,043,*79
$GPGSV,3,3,09,16,04,222,*41
$GPRMC,042127.400,A,3158.7521,S,11549.0080,E,0.02,0.00,100315,,,D*7A
$GPGGA,042127.600,3158.7521,S,11549.0080,E,2,5,1.58,9.1,M,-29.4,M,0000,0000*6B
$GPGSA,A,3,21,29,25,31,05,,,,,,,,1.84,1.58,0.93*01
$GPGSV,3,1,09,21,71,291,48,25,48,041,38,29,47,129,46,42,44,040,37*72
$GPGSV,3,2,09,31,36,287,28,18,22,005,,05,17,131,32,12,10,043,*79
$GPGSV,3,3,09,16,04,222,*41
$GPRMC,042127.600,A,3158.7521,S,11549.0080,E,0.03,0.00,100315,,,D*79
$GPGGA,042127.800,3158.7521,S,11549.0079,E,2,5,1.58,9.1,M,-29.4,M,0000,0000*63
$GPGSA,A,3,21,29,25,31,05,,,,,,,,1.84,1.58,0.93*01
$GPGSV,3,1,09,21,71,291,48,25,48,041,38,29,47,129,46,42,44,040,37*72
$GPGSV,3,2,09,31,36,287,28,18,22,005,,05,17,131,32,12,10,043,*79
$GPGSV,3,3,09,16,04,222,*41
$GPRMC,042127.800,A,3158.7521,S,11549.0079,E,0.03,0.00,100315,,,D*71
$GPGGA,042128.000,3158.7522,S,11549.0079,E,2,5,1.58,9.2,M,-29.4,M,0000,0000*64
$GPGSA,A,3,21,29,25,31,05,,,,,,,,1.84,1.58,0.93*01
$GPGSV,3,1,09,21,71,291,48,25,48,041,38,29,47,129,46,42,44,040,37*72
$GPGSV,3,2,09,31,36,287,28,18,22,005,,05,17,131,32,12,10,043,*79
$GPGSV,3,3,09,16,04,222,*41
$GPRMC,042128.000,A,3158.7522,S,11549.0079,E,0.04,0.00,100315,,,D*72
$GPGGA,042128.200,3158.7522,S,11549.0079,E,2,5,1.58,9.2,M,-29.4,M,0000,0000*66
$GPGSA,A,3,21,29,25,31,05,,,,,,,,1.84,1.58,0.93*01
$GPGSV,3,1,09,21,71,291,48,25,48,041,37,29,47,129,46,42,44,040,37*7D
$GPGSV,3,2,09,31,36,287,28,18,22,005,,05,17,131,32,12,10,043,*79
$GPGSV,3,3,09,16,04,222,*41
$GPRMC,042128.200,A,3158.7522,S,11549.0079,E,0.04,0.00,100315,,,D*70
$GPGGA,042128.400,3158.7522,S,11549.0079,E,2,5,1.58,9.2,M,-29.4,M,0000,0000*60
$GPGSA,A,3,21,29,25,31,05,,,,,,,,1.84,1.58,0.93*01
$GPGSV,3,1,09,21,71,291,48,25,48,041,37,29,47,129,46,42,44,040,37*7D
$GPGSV,3,2,09,31,36,287,28,18,22,005,,05,17,131,32,12,10,043,*79
$GPGSV,3,3,09,16,04,222,*41
$GPRMC,042128.400,A,3158.7522,S,11549.0079,E,0.04,0.00,100315,,,D*76
$GPGGA,042128.600,3158.7523,S,11549.0079,E,2,5,1.58,9.2,M,-29.4,M,0000,0000*63
$GPGSA,A,3,21,29,25,31,05,,,,,,,,1.84,1.58,0.93*01
$GPGSV,3,1,09,21,71,291,48,25,48,041,37,29,47,129,46,42,44,040,36*7C
$GPGSV,3,2,09,31,36,287,28,18,22,005,,05,17,131,32,12,10,043,*79
$GPGSV,3,3,09,16,04,222,*41
$GPRMC,042128.600,A,3158.7523,S,11549.0079,E,0.04,0.00,100315,,,D*75
$GPGGA,042128.800,3158.7523,S,11549.0078,E,2,5,1.58,9.3,M,-29.4,M,0000,0000*6D
$GPGSA,A,3,21,29,25,31,05,,,,,,,,1.84,1.58,0.93*01
$GPGSV,3,1,09,21,71,291,48,25,48,041,37,29,47,129,46,42,44,040,36*7C
$GPGSV,3,2,09,31,36,287,28,18,22,005,,05,17,131,32,12,10,043,*79
$GPGSV,3,3,09,16,04,222,*41
$GPRMC,042128.800,A,3158.7523,S,11549.0078,E,0.05,0.00,100315,,,D*7B
$GPGGA,042129.000,3158.7523,S,11549.0078,E,2,5,1.58,9.5,M,-29.4,M,0000,0000*62
$GPGSA,A,3,21,29,25,31,05,,,,,,,,1.84,1.58,0.93*01
$GPGSV,3,1,09,21,71,291,48,25,48,041,37,29,47,129,46,42,44,040,36*7C
$GPGSV,3,2,09,31,36,287,28,18,22,005,,05,17,131,32,12,10,043,*79
$GPGSV,3,3,09,16,04,222,*41
$GPRMC,042129.000,A,3158.7523,S,11549.0078,E,0.05,0.00,100315,,,D*72
$GPGGA,042129.200,3158.7523,S,11549.0078,E,2,5,1.58,9.7,M,-29.4,M,0000,0000*62
$GPGSA,A,3,21,29,25,31,05,,,,,,,,1.83,1.58,0.93*06
$GPGSV,3,1,09,21,71,291,48,25,48,041,37,29,47,129,46,42,44,040,36*7C
$GPGSV,3,2,09,31,36,287,28,18,22,005,,05,17,131,32,12,10,043,*79
$GPGSV,3,3,09,16,04,222,*41
$GPRMC,042129.200,A,3158.7523,S,11549.0078,E,0.06,0.00,100315,,,D*73
$GPGGA,042129.400,3158.7523,S,11549.0079,E,2,5,1.58,10.0,M,-29.4,M,0000,0000*5A
$GPGSA,A,3,21,29,25,31,05,,,,,,,,1.84,1.58,0.93*01
$GPGSV,3,1,09,21,71,291,48,25,48,041,37,29,47,129,46,42,44,040,36*7C
$GPGSV,3,2,09,31,36,287,28,18,22,005,,05,17,131,33,12,10,043,*78
$GPGSV,3,3,09,16,04,222,*41
$GPRMC,042129.400,A,3158.7523,S,11549.0079,E,0.07,0.00,100315,,,D*75
$GPGGA,042129.600,3158.7523,S,11549.0079,E,2,5,1.58,10.2,M,-29.4,M,0000,0000*5A
$GPGSA,A,3,21,29,25,31,05,,,,,,,,1.84,1.58,0.93*01
$GPGSV,3,1,09,21,71,291,48,25,48,041,37,29,47,129,46,42,44,040,36*7C
$GPGSV,3,2,09,31,36,287,28,18,22,005,,05,17,131,34,12,10,043,*7F
$GPGSV,3,3,09,16,04,222,*41
$GPRMC,042129.600,A,3158.7523,S,11549.0079,E,0.08,0.00,100315,,,D*78
$GPGGA,042129.800,3158.7523,S,11549.0079,E,2,5,1.58,10.4,M,-29.4,M,0000,0000*52
$GPGSA,A,3,21,29,25,31,05,,,,,,,,1.84,1.58,0.93*01
$GPGSV,3,1,09,21,71,291,48,25,48,041,37,29,47,129,46,42,44,040,36*7C
$GPGSV,3,2,09,31,36,287,28,18,22,005,,05,17,131,34,12,10,043,*7F
$GPGSV,3,3,09,16,04,222,*41
$GPRMC,042129.800,A,3158.7523,S,11549.0079,E,0.07,0.00,100315,,,D*79
$GPGGA,042130.000,3158.7523,S,11549.0079,E,2,5,1.58,10.7,M,-29.4,M,0000,0000*51
$GPGSA,A,3,21,29,25,31,05,,,,,,,,1.84,1.58,0.93*01
$GPGSV,3,1,09,21,71,291,48,25,48,041,37,29,47,129,46,42,44,040,36*7C
$GPGSV,3,2,09,31,36,287,28,18,22,005,,05,17,131,34,12,10,043,*7F
$GPGSV,3,3,09,16,04,222,*41
$GPRMC,042130.000,A,3158.7523,S,11549.0079,E,0.07,0.00,100315,,,D*79
$GPGGA,042130.200,3158.7523,S,11549.0079,E,2,5,1.58,10.9,M,-29.4,M,0000,0000*5D
$GPGSA,A,3,21,29,25,31,05,,,,,,,,1.84,1.58,0.93*01
$GPGSV,3,1,09,21,71,291,48,25,48,041,37,29,47,129,46,42,44,040,36*7C
$GPGSV,3,2,09,31,36,287,28,18,22,005,,05,17,131,34,12,10,043,*7F
$GPGSV,3,3,09,16,04,222,*41
$GPRMC,042130.200,A,3158.7523,S,11549.0079,E,0.06,0.00,100315,,,D*7A
$GPGGA,042130.400,3158.7523,S,11549.0079,E,2,5,1.58,11.2,M,-29.4,M,0000,0000*51
$GPGSA,A,3,21,29,25,31,05,,,,,,,,1.84,1.58,0.93*01
$GPGSV,3,1,09,21,71,291,48,25,48,041,37,29,47,129,46,42,41,046,36*7F
$GPGSV,3,2,09,31,36,287,28,18,22,005,,05,17,131,34,12,10,043,*7F
$GPGSV,3,3,09,16,04,222,*41
$GPRMC,042130.400,A,3158.7523,S,11549.0079,E,0.06,0.00,100315,,,D*7C
$GPGGA,042130.600,3158.7523,S,11549.0078,E,2,5,1.58,11.4,M,-29.4,M,0000,0000*54
$GPGSA,A,3,21,29,25,31,05,,,,,,,,1.84,1.58,0.93*01
$GPGSV,3,1,09,21,71,291,48,25,48,041,37,29,47,129,46,42,41,046,36*7F
$GPGSV,3,2,09,31,36,287,28,18,22,005,,05,17,131,34,12,10,043,*7F
$GPGSV,3,3,09,16,04,222,*41
$GPRMC,042130.600,A,3158.7523,S,11549.0078,E,0.06,0.00,100315,,,D*7F
$GPGGA,042130.800,3158.7523,S,11549.0078,E,2,5,1.58,11.5,M,-29.4,M,0000,0000*5B
$GPGSA,A,3,21,29,25,31,05,,,,,,,,1.84,1.58,0.93*01
$GPGSV,3,1,09,21,71,291,48,25,48,041,37,29,47,129,46,42,41,046,37*7E
$GPGSV,3,2,09,31,36,287,28,18,22,005,,05,17,131,34,12,10,043,*7F
$GPGSV,3,3,09,16,04,222,*41
$GPRMC,042130.800,A,3158.7523,S,11549.0078,E,0.05,0.00,100315,,,D*72
$GPGGA,042131.000,3158.7523,S,11549.0078,E,2,5,1.58,11.8,M,-29.4,M,0000,0000*5F
$GPGSA,A,3,21,29,25,31,05,,,,,,,,1.84,1.58,0.93*01
$GPGSV,3,1,09,21,71,291,48,25,48,041,37,29,47,129,46,42,41,046,38*71
$GPGSV,3,2,09,31,36,287,29,18,22,005,,05,17,131,34,12,10,043,*7E
$GPGSV,3,3,09,16,04,222,*41
$GPRMC,042131.000,A,3158.7523,S,11549.0078,E,0.04,0.00,100315,,,D*7A
$GPGGA,042131.200,3158.7523,S,11549.0078,E,2,5,1.58,12.1,M,-29.4,M,0000,0000*57
$GPGSA,A,3,21,29,25,31,05,,,,,,,,1.84,1.58,0.93*01
$GPGSV,3,1,09,21,71,291,48,25,48,041,37,29,47,129,46,42,41,046,38*71
$GPGSV,3,2,09,31,36,287,29,18,22,005,,05,17,131,34,12,10,043,*7E
$GPGSV,3,3,09,16,04,222,*41
$GPRMC,042131.200,A,3158.7523,S,11549.0078,E,0.05,0.00,100315,,,D*79
$GPGGA,042131.400,3158.7523,S,11549.0079,E,2,5,1.58,12.7,M,-29.4,M,0000,0000*56
$GPGSA,A,3,21,29,25,31,05,,,,,,,,1.84,1.58,0.93*01
$GPGSV,3,1,09,21,71,291,48,25,48,041,37,29,47,129,46,42,41,046,38*71
$GPGSV,3,2,09,31,36,287,30,18,22,005,,05,17,131,34,12,10,043,*76
$GPGSV,3,3,09,16,04,222,*41
$GPRMC,042131.400,A,3158.7523,S,11549.0079,E,0.04,0.00,100315,,,D*7F
$GPGGA,042131.600,3158.7522,S,11549.0079,E,2,5,1.58,13.2,M,-29.4,M,0000,0000*51
$GPGSA,A,3,21,29,25,31,05,,,,,,,,1.84,1.58,0.93*01
$GPGSV,3,1,09,21,71,291,48,25,48,041,37,29,47,129,46,42,41,046,38*71
$GPGSV,3,2,09,31,36,287,30,18,22,005,,05,17,131,34,12,10,043,*76
$GPGSV,3,3,09,16,04,222,*41
$GPRMC,042131.600,A,3158.7522,S,11549.0079,E,0.04,0.00,100315,,,D*7C
$GPGGA,042131.800,3158.7522,S,11549.0079,E,2,5,1.58,13.5,M,-29.4,M,0000,0000*58
$GPGSA,A,3,21,29,25,31,05,,,,,,,,1.84,1.58,0.93*01
$GPGSV,3,1,09,21,71,291,48,25,48,041,37,29,47,129,46,42,41,046,38*71
$GPGSV,3,2,09,31,36,287,30,18,22,005,,05,17,131,33,12,10,043,*71
$GPGSV,3,3,09,16,04,222,*41
$GPRMC,042131.800,A,3158.7522,S,11549.0079,E,0.05,0.00,100315,,,D*73
$GPGGA,042132.000,3158.7522,S,11549.0080,E,2,5,1.58,13.7,M,-29.4,M,0000,0000*57
$GPGSA,A,3,21,29,25,31,05,,,,,,,,1.84,1.58,0.93*01
$GPGSV,3,1,09,21,71,291,48,25,48,041,37,29,47,129,46,42,41,046,38*71
$GPGSV,3,2,09,31,36,287,31,18,22,005,,05,17,131,33,12,10,043,*70
$GPGSV,3,3,09,16,04,222,*41
$GPRMC,042132.000,A,3158.7522,S,11549.0080,E,0.06,0.00,100315,,,D*7D
$GPGGA,042132.200,3158.7522,S,11549.0080,E,2,5,1.58,13.9,M,-29.4,M,0000,0000*5B
$GPGSA,A,3,21,29,25,31,05,,,,,,,,1.83,1.58,0.93*06
$GPGSV,3,1,09,21,71,291,48,25,48,041,37,29,47,129,46,42,41,046,38*71
$GPGSV,3,2,09,31,36,287,31,18,22,005,,05,17,131,33,12,10,043,*70
$GPGSV,3,3,09,16,04,222,*41
$GPRMC,042132.200,A,3158.7522,S,11549.0080,E,0.06,0.00,100315,,,D*7F
$GPGGA,042132.400,3158.7522,S,11549.0080,E,2,5,1.58,14.0,M,-29.4,M,0000,0000*53
$GPGSA,A,3,21,29,25,31,05,,,,,,,,1.83,1.58,0.93*06
$GPGSV,3,1,09,21,71,291,48,25,48,041,37,29,47,129,46,42,41,046,38*71
$GPGSV,3,2,09,31,36,287,32,18,22,005,,05,17,131,33,12,10,043,*73
$GPGSV,3,3,09,16,04,222,*41
$GPRMC,042132.400,A,3158.7522,S,11549.0080,E,0.06,0.00,100315,,,D*79
$GPGGA,042132.600,3158.7522,S,11549.0080,E,2,5,1.58,14.2,M,-29.4,M,0000,0000*53
$GPGSA,A,3,21,29,25,31,05,,,,,,,,1.84,1.58,0.93*01
$GPGSV,3,1,09,21,71,291,48,25,48,041,37,29,47,129,46,42,41,046,38*71
$GPGSV,3,2,09,31,36,287,32,18,22,005,,05,17,131,33,12,10,043,*73
$GPGSV,3,3,09,16,04,222,*41
$GPRMC,042132.600,A,3158.7522,S,11549.0080,E,0.05,0.00,100315,,,D*78
$GPGGA,042132.800,3158.7522,S,11549.0080,E,2,5,1.58,14.4,M,-29.4,M,0000,0000*5B
$GPGSA,A,3,21,29,25,31,05,,,,,,,,1.83,1.58,0.93*06
$GPGSV,3,1,09,21,71,291,48,25,48,041,37,29,47,129,46,42,41,046,38*71
$GPGSV,3,2,09,31,36,287,32,18,22,005,,05,17,131,33,12,10,043,*73
$GPGSV,3,3,09,16,04,222,*41
$GPRMC,042132.800,A,3158.7522,S,11549.0080,E,0.04,0.00,100315,,,D*77
$GPGGA,042133.000,3158.7522,S,11549.0080,E,2,5,1.58,14.7,M,-29.4,M,0000,0000*51
$GPGSA,A,3,21,29,25,31,05,,,,,,,,1.84,1.58,0.93*01
$GPGSV,3,1,09,21,71,291,48,25,48,041,37,29,47,129,46,42,41,046,38*71
$GPGSV,3,2,09,31,36,287,32,18,22,005,,05,17,131,33,12,10,043,*73
$GPGSV,3,3,09,16,04,222,*41
$GPRMC,042133.000,A,3158.7522,S,11549.0080,E,0.03,0.00,100315,,,D*79
$GPGGA,042133.200,3158.7522,S,11549.0080,E,2,5,1.58,14.8,M,-29.4,M,0000,0000*5C
$GPGSA,A,3,21,29,25,31,05,,,,,,,,1.84,1.58,0.93*01
$GPGSV,3,1,09,21,71,291,48,25,48,041,37,29,47,129,46,42,41,046,38*71
$GPGSV,3,2,09,31,36,287,32,18,22,005,,05,17,131,33,12,10,043,*73
$GPGSV,3,3,09,16,04,222,*41
$GPRMC,042133.200,A,3158.7522,S,11549.0080,E,0.03,0.00,100315,,,D*7B
$GPGGA,042133.400,3158.7522,S,11549.0080,E,2,5,1.58,14.9,M,-29.4,M,0000,0000*5B
$GPGSA,A,3,21,29,25,31,05,,,,,,,,1.84,1.58,0.93*01
$GPGSV,3,1,09,21,71,291,48,25,48,041,37,29,47,129,46,42,41,046,38*71
$GPGSV,3,2,09,31,36,287,32,18,22,005,,05,17,131,33,12,10,043,*73
$GPGSV,3,3,09,16,04,222,*41
$GPRMC,042133.400,A,3158.7522,S,11549.0080,E,0.04,0.00,100315,,,D*7A
$GPGGA,042133.600,3158.7522,S,11549.0080,E,2,5,1.58,15.1,M,-29.4,M,0000,0000*50
$GPGSA,A,3,21,29,25,31,05,,,,,,,,1.83,1.58,0.93*06
$GPGSV,3,1,09,21,71,291,48,25,48,041,37,29,47,129,46,42,41,046,38*71
$GPGSV,3,2,09,31,36,287,32,18,22,005,,05,17,131,33,12,10,043,*73
$GPGSV,3,3,09,16,04,222,*41
$GPRMC,042133.600,A,3158.7522,S,11549.0080,E,0.04,0.00,100315,,,D*78
$GPGGA,042133.800,3158.7521,S,11549.0080,E,2,5,1.58,15.3,M,-29.4,M,0000,0000*5F
$GPGSA,A,3,21,29,25,31,05,,,,,,,,1.84,1.58,0.93*01
$GPGSV,3,1,09,21,71,291,48,25,48,041,37,29,47,129,46,42,41,046,38*71
$GPGSV,3,2,09,31,36,287,32,18,22,005,,05,17,131,33,12,10,043,*73
$GPGSV,3,3,09,16,04,222,*41
$GPRMC,042133.800,A,3158.7521,S,11549.0080,E,0.04,0.00,100315,,,D*75
$GPGGA,042134.000,3158.7521,S,11549.0080,E,2,5,1.58,15.6,M,-29.4,M,0000,0000*55
$GPGSA,A,3,21,29,25,31,05,,,,,,,,1.83,1.58,0.93*06
$GPGSV,3,1,09,21,71,291,48,25,48,041,37,29,47,129,46,42,41,046,38*71
$GPGSV,3,2,09,31,36,287,32,18,22,005,,05,17,131,33,12,10,043,*73
$GPGSV,3,3,09,16,04,222,*41
$GPRMC,042134.000,A,3158.7521,S,11549.0080,E,0.05,0.00,100315,,,D*7B
$GPGGA,042134.200,3158.7521,S,11549.0080,E,2,5,1.58,15.9,M,-29.4,M,0000,0000*58
$GPGSA,A,3,21,29,25,31,05,,,,,,,,1.83,1.58,0.93*06
$GPGSV,3,1,09,21,71,291,48,25,48,041,37,29,47,129,46,42,41,046,38*71
$GPGSV,3,2,09,31,36,287,32,18,22,005,,05,17,131,33,12,10,043,*73
$GPGSV,3,3,09,16,04,222,*41
$GPRMC,042134.200,A,3158.7521,S,11549.0080,E,0.05,0.00,100315,,,D*79
$GPGGA,042134.400,3158.7521,S,11549.0080,E,2,5,1.58,16.1,M,-29.4,M,0000,0000*55
$GPGSA,A,3,21,29,25,31,05,,,,,,,,1.83,1.58,0.93*06
$GPGSV,3,1,09,21,71,291,48,25,48,041,37,29,47,129,46,42,41,046,38*71
$GPGSV,3,2,09,31,36,287,33,18,22,005,,05,17,131,33,12,10,043,*72
$GPGSV,3,3,09,16,04,222,*41
$GPRMC,042134.400,A,3158.7521,S,11549.0080,E,0.06,0.00,100315,,,D*7C
$GPGGA,042134.600,3158.7521,S,11549.0081,E,2,5,1.58,16.4,M,-29.4,M,0000,0000*53
$GPGSA,A,3,21,29,25,31,05,,,,,,,,1.83,1.58,0.93*06
$GPGSV,3,1,09,21,71,291,48,25,48,041,37,29,47,129,46,42,41,046,39*70
$GPGSV,3,2,09,31,36,287,33,18,22,005,,05,17,131,33,12,10,043,*72
$GPGSV,3,3,09,16,04,222,*41
$GPRMC,042134.600,A,3158.7521,S,11549.0081,E,0.06,0.00,100315,,,D*7F
$GPGGA,042134.800,3158.7520,S,11549.0081,E,2,5,1.70,16.6,M,-29.4,M,0000,0000*54
$GPGSA,A,3,21,29,25,31,05,,,,,,,,3.04,1.70,2.53*0F
$GPGSV,3,1,09,21,71,291,48,25,48,041,37,29,47,129,46,42,41,046,39*70
$GPGSV,3,2,09,31,36,287,33,18,22,005,,05,17,131,33,12,10,043,*72
$GPGSV,3,3,09,16,04,222,*41
$GPRMC,042134.800,A,3158.7520,S,11549.0081,E,0.06,0.00,100315,,,D*70
$GPGGA,042135.000,3158.7520,S,11549.0081,E,2,5,1.58,16.8,M,-29.4,M,0000,0000*59
$GPGSA,A,3,21,29,25,31,05,,,,,,,,1.83,1.58,0.93*06
$GPGSV,3,1,09,21,71,291,48,25,48,041,37,29,47,129,46,42,41,046,39*70
$GPGSV,3,2,09,31,36,287,33,18,22,005,,05,17,131,33,12,10,043,*72
$GPGSV,3,3,09,16,04,222,*41
$GPRMC,042135.000,A,3158.7520,S,11549.0081,E,0.06,0.00,100315,,,D*79
$GPGGA,042135.200,3158.7520,S,11549.0081,E,2,5,1.58,17.1,M,-29.4,M,0000,0000*53
$GPGSA,A,3,21,29,25,31,05,,,,,,,,1.83,1.58,0.93*06
$GPGSV,3,1,09,21,71,291,48,25,48,041,37,29,47,129,47,42,41,046,39*71
$GPGSV,3,2,09,31,36,287,34,18,22,005,,05,17,131,33,12,10,043,*75
$GPGSV,3,3,09,16,04,222,*41
$GPRMC,042135.200,A,3158.7520,S,11549.0081,E,0.06,0.00,100315,,,D*7B
$GPGGA,042135.400,3158.7520,S,11549.0082,E,2,5,1.58,17.4,M,-29.4,M,0000,0000*53
$GPGSA,A,3,21,29,25,31,05,,,,,,,,1.83,1.58,0.93*06
$GPGSV,3,1,09,21,71,291,48,25,48,041,37,29,47,129,47,42,41,046,38*70
$GPGSV,3,2,09,31,36,287,34,18,22,005,,05,17,131,33,12,10,043,*75
$GPGSV,3,3,09,16,04,222,*41
$GPRMC,042135.400,A,3158.7520,S,11549.0082,E,0.07,0.00,100315,,,D*7F
$GPGGA,042135.600,3158.7519,S,11549.0082,E,2,5,1.58,17.7,M,-29.4,M,0000,0000*58
$GPGSA,A,3,21,29,25,31,05,,,,,,,,1.83,1.58,0.93*06
$GPGSV,3,1,09,21,71,291,48,25,48,041,37,29,47,129,47,42,41,046,38*70
$GPGSV,3,2,09,31,36,287,34,18,22,005,,05,17,131,33,12,10,043,*75
$GPGSV,3,3,09,16,04,222,*41
$GPRMC,042135.600,A,3158.7519,S,11549.0082,E,0.07,0.00,100315,,,D*77
$GPGGA,042135.800,3158.7519,S,11549.0082,E,2,5,1.58,17.8,M,-29.4,M,0000,0000*59
$GPGSA,A,3,21,29,25,31,05,,,,,,,,1.83,1.58,0.93*06
$GPGSV,3,1,09,21,71,291,48,25,48,041,37,29,47,129,47,42,41,046,38*70
$GPGSV,3,2,09,31,36,287,34,18,22,005,,05,17,131,33,12,10,043,*75
$GPGSV,3,3,09,16,04,222,*41
$GPRMC,042135.800,A,3158.7519,S,11549.0082,E,0.07,0.00,100315,,,D*79
$GPGGA,042136.000,3158.7519,S,11549.0083,E,2,5,1.58,17.9,M,-29.4,M,0000,0000*52
$GPGSA,A,3,21,29,25,31,05,,,,,,,,1.83,1.58,0.93*06
$GPGSV,3,1,09,21,71,291,48,25,48,041,36,29,47,129,47,42,41,046,38*71
$GPGSV,3,2,09,31,36,287,34,18,22,005,,05,17,131,33,12,10,043,*75
$GPGSV,3,3,09,16,04,222,*41
$GPRMC,042136.000,A,3158.7519,S,11549.0083,E,0.08,0.00,100315,,,D*7C
$GPGGA,042136.200,3158.7519,S,11549.0083,E,2,5,1.58,18.1,M,-29.4,M,0000,0000*57
$GPGSA,A,3,21,29,25,31,05,,,,,,,,1.83,1.58,0.93*06
$GPGSV,3,1,09,21,71,291,48,25,48,041,36,29,47,129,47,42,41,046,38*71
$GPGSV,3,2,09,31,36,287,34,18,22,005,,05,17,131,33,12,10,043,*75
$GPGSV,3,3,09,16,04,222,*41
$GPRMC,042136.200,A,3158.7519,S,11549.0083,E,0.08,0.00,100315,,,D*7E
$GPGGA,042136.400,3158.7519,S,11549.0083,E,2,5,1.58,18.2,M,-29.4,M,0000,0000*52
$GPGSA,A,3,21,29,25,31,05,,,,,,,,1.83,1.58,0.93*06
$GPGSV,3,1,09,21,71,291,48,25,48,041,36,29,47,129,47,42,41,046,39*70
$GPGSV,3,2,09,31,36,287,34,18,22,005,,05,17,131,33,12,10,043,*75
$GPGSV,3,3,09,16,04,222,*41
$GPRMC,042136.400,A,3158.7519,S,11549.0083,E,0.08,0.00,100315,,,D*78
$GPGGA,042136.600,3158.7519,S,11549.0083,E,2,5,1.58,18.5,M,-29.4,M,0000,0000*57
$GPGSA,A,3,21,29,25,31,05,,,,,,,,1.83,1.58,0.93*06
$GPGSV,3,1,09,21,71,291,48,25,48,041,36,29,47,129,47,42,41,046,39*70
$GPGSV,3,2,09,31,36,287,35,18,22,005,,05,17,131,33,12,10,043,*74
$GPGSV,3,3,09,16,04,222,*41
$GPRMC,042136.600,A,3158.7519,S,11549.0083,E,0.08,0.00,100315,,,D*7A
$GPGGA,042136.800,3158.7518,S,11549.0084,E,2,5,1.58,18.7,M,-29.4,M,0000,0000*5D
$GPGSA,A,3,21,29,25,31,05,,,,,,,,1.83,1.58,0.93*06
$GPGSV,3,1,09,21,71,291,48,25,48,041,36,29,47,129,47,42,41,046,39*70
$GPGSV,3,2,09,31,36,287,35,18,22,005,,05,17,131,33,12,10,043,*74
$GPGSV,3,3,09,16,04,222,*41
$GPRMC,042136.800,A,3158.7518,S,11549.0084,E,0.07,0.00,100315,,,D*7D
$GPGGA,042137.000,3158.7518,S,11549.0084,E,2,5,1.58,18.9,M,-29.4,M,0000,0000*5A
$GPGSA,A,3,21,29,25,31,05,,,,,,,,1.83,1.58,0.93*06
$GPGSV,3,1,09,21,71,291,48,25,48,041,35,29,47,129,47,42,41,046,38*72
$GPGSV,3,2,09,31,36,287,35,18,22,005,,05,17,131,33,12,10,043,*74
$GPGSV,3,3,09,16,04,222,*41
$GPRMC,042137.000,A,3158.7518,S,11549.0084,E,0.05,0.00,100315,,,D*76
$GPGGA,042137.200,3158.7518,S,11549.0084,E,2,5,1.58,19.0,M,-29.4,M,0000,0000*50
$GPGSA,A,3,21,29,25,31,05,,,,,,,,1.83,1.58,0.93*06
$GPGSV,3,1,09,21,71,291,48,25,48,041,34,29,47,129,47,42,41,046,38*73
$GPGSV,3,2,09,31,36,287,35,18,22,005,,05,17,131,33,12,10,043,*74
$GPGSV,3,3,09,16,05,222,*40
$GPRMC,042137.200,A,3158.7518,S,11549.0084,E,0.04,0.00,100315,,,D*75
$GPGGA,042137.400,3158.7518,S,11549.0084,E,2,5,1.58,19.2,M,-29.4,M,0000,0000*54
$GPGSA,A,3,21,29,25,31,05,,,,,,,,1.83,1.58,0.93*06
$GPGSV,3,1,09,21,71,291,48,25,48,041,34,29,47,129,47,42,41,046,38*73
$GPGSV,3,2,09,31,36,287,35,18,22,005,,05,17,131,33,12,10,043,*74
$GPGSV,3,3,09,16,05,222,*40
$GPRMC,042137.400,A,3158.7518,S,11549.0084,E,0.02,0.00,100315,,,D*75
$GPGGA,042137.600,3158.7518,S,11549.0084,E,2,5,1.58,19.3,M,-29.4,M,0000,0000*57
$GPGSA,A,3,21,29,25,31,05,,,,,,,,1.83,1.58,0.93*06
$GPGSV,3,1,09,21,71,291,48,25,48,041,34,29,47,129,47,42,41,046,38*73
$GPGSV,3,2,09,31,36,287,35,18,22,005,,05,17,131,32,12,10,043,*75
$GPGSV,3,3,09,16,05,222,*40
$GPRMC,042137.600,A,3158.7518,S,11549.0084,E,0.01,0.00,100315,,,D*74
$GPGGA,042137.800,3158.7518,S,11549.0084,E,2,5,1.58,19.5,M,-29.4,M,0000,0000*5F
$GPGSA,A,3,21,29,25,31,05,,,,,,,,1.83,1.58,0.93*06
$GPGSV,3,1,09,21,71,291,48,25,48,041,34,29,47,129,47,42,41,046,38*73
$GPGSV,3,2,09,31,36,287,35,18,22,005,,05,17,131,32,12,10,043,*75
$GPGSV,3,3,09,16,05,222,*40
$GPRMC,042137.800,A,3158.7518,S,11549.0084,E,0.02,0.00,100315,,,D*79
$GPGGA,042138.000,3158.7517,S,11549.0085,E,2,5,1.58,19.7,M,-29.4,M,0000,0000*54
$GPGSA,A,3,21,29,25,31,05,,,,,,,,1.83,1.58,0.93*06
$GPGSV,3,1,09,21,71,291,48,25,48,041,34,29,47,129,47,42,41,046,38*73
$GPGSV,3,2,09,31,36,287,36,18,22,005,,05,17,131,32,12,10,043,*76
$GPGSV,3,3,09,16,05,222,*40
$GPRMC,042138.000,A,3158.7517,S,11549.0085,E,0.03,0.00,100315,,,D*71
$GPGGA,042138.200,3158.7517,S,11549.0085,E,2,5,1.58,20.0,M,-29.4,M,0000,0000*5B
$GPGSA,A,3,21,29,25,31,05,,,,,,,,1.83,1.58,0.93*06
$GPGSV,3,1,09,21,71,291,48,25,48,041,34,29,47,129,47,42,41,046,38*73
$GPGSV,3,2,09,31,36,287,36,18,22,005,,05,17,131,32,12,10,043,*76
$GPGSV,3,3,09,16,05,222,*40
$GPRMC,042138.200,A,3158.7517,S,11549.0085,E,0.05,0.00,100315,,,D*75
$GPGGA,042138.400,3158.7517,S,11549.0085,E,2,5,1.58,20.2,M,-29.4,M,0000,0000*5F
$GPGSA,A,3,21,29,25,31,05,,,,,,,,1.83,1.58,0.93*06
$GPGSV,3,1,09,21,71,291,48,25,48,041,34,29,47,129,47,42,41,046,38*73
$GPGSV,3,2,09,31,36,287,36,18,22,005,,05,17,131,32,12,10,043,*76
$GPGSV,3,3,09,16,05,222,*40
$GPRMC,042138.400,A,3158.7517,S,11549.0085,E,0.05,0.00,100315,,,D*73
$GPGGA,042138.600,3158.7517,S,11549.0085,E,2,5,1.70,20.4,M,-29.4,M,0000,0000*51
$GPGSA,A,3,21,29,25,31,05,,,,,,,,3.04,1.70,2.53*0F
$GPGSV,3,1,09,21,71,291,48,25,48,041,34,29,47,129,47,42,41,046,38*73
$GPGSV,3,2,09,31,36,287,36,18,22,005,,05,17,131,32,12,10,043,*76
$GPGSV,3,3,09,16,05,222,*40
$GPRMC,042138.600,A,3158.7517,S,11549.0085,E,0.05,0.00,100315,,,D*71
$GPGGA,042138.800,3158.7517,S,11549.0085,E,2,5,1.58,20.5,M,-29.4,M,0000,0000*54
$GPGSA,A,3,21,29,25,31,05,,,,,,,,1.83,1.58,0.93*06
$GPGSV,3,1,09,21,71,291,48,25,48,041,34,29,47,129,47,42,41,046,38*73
$GPGSV,3,2,09,31,36,287,36,18,22,005,,05,17,131,32,12,10,043,*76
$GPGSV,3,3,09,16,05,222,*40
$GPRMC,042138.800,A,3158.7517,S,11549.0085,E,0.04,0.00,100315,,,D*7E
$GPGGA,042139.000,3158.7517,S,11549.0085,E,2,5,1.58,20.7,M,-29.4,M,0000,0000*5F
$GPGSA,A,3,21,29,25,31,05,,,,,,,,1.83,1.58,0.93*06
$GPGSV,3,1,09,21,71,291,48,25,48,041,34,29,47,129,47,42,41,046,38*73
$GPGSV,3,2,09,31,36,287,36,18,22,005,,05,17,131,32,12,10,043,*76
$GPGSV,3,3,09,16,05,222,*40
$GPRMC,042139.000,A,3158.7517,S,11549.0085,E,0.03,0.00,100315,,,D*70
$GPGGA,042139.200,3158.7517,S,11549.0085,E,2,5,1.58,21.0,M,-29.4,M,0000,0000*5B
$GPGSA,A,3,21,29,25,31,05,,,,,,,,1.83,1.58,0.93*06
$GPGSV,3,1,09,21,71,291,48,25,48,041,34,29,47,129,47,42,41,046,38*73
$GPGSV,3,2,09,31,36,287,36,18,22,005,,05,17,131,32,12,10,043,*76
$GPGSV,3,3,09,16,05,222,*40
$GPRMC,042139.200,A,3158.7517,S,11549.0085,E,0.03,0.00,100315,,,D*72
$GPGGA,042139.400,3158.7517,S,11549.0085,E,2,5,1.58,21.3,M,-29.4,M,0000,0000*5E
$GPGSA,A,3,21,29,25,31,05,,,,,,,,1.83,1.58,0.93*06
$GPGSV,3,1,09,21,71,291,48,25,48,041,34,29,47,129,47,42,41,046,38*73
$GPGSV,3,2,09,31,36,287,36,18,22,005,,05,17,131,32,12,10,043,*76
$GPGSV,3,3,09,16,05,222,*40
$GPRMC,042139.400,A,3158.7517,S,11549.0085,E,0.03,0.00,100315,,,D*74
$GPGGA,042139.600,3158.7516,S,11549.0085,E,2,5,1.58,21.5,M,-29.4,M,0000,0000*5B
$GPGSA,A,3,21,29,25,31,05,,,,,,,,1.83,1.58,0.93*06
$GPGSV,3,1,09,21,71,291,48,25,48,041,34,29,47,129,47,42,41,046,37*7C
$GPGSV,3,2,09,31,36,287,36,18,22,005,,05,17,131,32,12,10,043,*76
$GPGSV,3,3,09,16,05,222,*40
$GPRMC,042139.600,A,3158.7516,S,11549.0085,E,0.03,0.00,100315,,,D*77
$GPGGA,042139.800,3158.7516,S,11549.0085,E,2,5,1.58,21.7,M,-29.4,M,0000,0000*57
$GPGSA,A,3,21,29,25,31,05,,,,,,,,1.83,1.58,0.93*06
$GPGSV,3,1,09,21,71,291,48,25,48,041,34,29,47,129,47,42,41,046,37*7C
$GPGSV,3,2,09,31,36,287,36,18,22,005,,05,17,131,32,12,10,043,*76
$GPGSV,3,3,09,16,05,222,*40
$GPRMC,042139.800,A,3158.7516,S,11549.0085,E,0.03,0.00,100315,,,D*79
$GPGGA,042140.000,3158.7516,S,11549.0084,E,2,5,1.58,22.0,M,-29.4,M,0000,0000*54
$GPGSA,A,3,21,29,25,31,05,,,,,,,,1.83,1.58,0.93*06
$GPGSV,3,1,09,21,71,291,48,25,48,041,34,29,47,129,47,42,41,046,37*7C
