$GPGGA,042411.200,3158.7523,S,11549.0086,E,2,6,1.16,35.5,M,-29.4,M,0000,0000*59
$GPGSA,A,3,21,29,25,12,31,05,,,,,,,1.45,1.16,0.87*00
$GPGSV,3,1,09,21,72,288,46,29,46,127,43,25,46,040,37,42,41,046,40*7E
$GPGSV,3,2,09,31,35,288,24,18,23,006,18,05,17,132,32,12,09,042,16*7F
$GPGSV,3,3,09,16,05,221,*43
$GPRMC,042411.200,A,3158.7523,S,11549.0086,E,0.14,32.92,100315,,,D*45
$GPGGA,042411.400,3158.7522,S,11549.0086,E,2,6,1.16,35.5,M,-29.4,M,0000,0000*5E
$GPGSA,A,3,21,29,25,12,31,05,,,,,,,1.45,1.16,0.87*00
$GPGSV,3,1,09,21,72,288,46,29,46,127,43,25,46,040,37,42,41,046,40*7E
$GPGSV,3,2,09,31,35,288,24,18,23,006,18,05,17,132,32,12,09,042,16*7F
$GPGSV,3,3,09,16,05,221,*43
$GPRMC,042411.400,A,3158.7522,S,11549.0086,E,0.12,33.18,100315,,,D*47
$GPGGA,042411.600,3158.7522,S,11549.0086,E,2,6,1.16,35.5,M,-29.4,M,0000,0000*5C
$GPGSA,A,3,21,29,25,12,31,05,,,,,,,1.45,1.16,0.87*00
$GPGSV,3,1,09,21,72,288,46,29,46,127,43,25,46,040,37,42,41,046,40*7E
$GPGSV,3,2,09,31,35,288,24,18,23,006,18,05,17,132,32,12,09,042,16*7F
$GPGSV,3,3,09,16,05,221,*43
$GPRMC,042411.600,A,3158.7522,S,11549.0086,E,0.10,33.60,100315,,,D*48
$GPGGA,042411.800,3158.7522,S,11549.0086,E,2,7,1.16,35.6,M,-29.4,M,0000,0000*50
$GPGSA,A,3,21,29,25,18,12,31,05,,,,,,1.45,1.16,0.87*09
$GPGSV,3,1,09,21,72,288,46,29,46,127,43,25,46,040,37,42,41,046,40*7E
$GPGSV,3,2,09,31,35,288,24,18,23,006,18,05,17,132,31,12,09,042,16*7C
$GPGSV,3,3,09,16,05,221,*43
$GPRMC,042411.800,A,3158.7522,S,11549.0086,E,0.10,33.52,100315,,,D*47
$GPGGA,042412.000,3158.7522,S,11549.0086,E,2,7,1.16,35.6,M,-29.4,M,0000,0000*5B
$GPGSA,A,3,21,29,25,18,12,31,05,,,,,,1.45,1.16,0.87*09
$GPGSV,3,1,09,21,72,288,46,29,46,127,43,25,46,040,37,42,41,046,40*7E
$GPGSV,3,2,09,31,35,288,24,18,23,006,18,05,17,132,31,12,09,042,16*7C
$GPGSV,3,3,09,16,05,221,*43
$GPRMC,042412.000,A,3158.7522,S,11549.0086,E,0.08,33.44,100315,,,D*42
$GPGGA,042412.200,3158.7522,S,11549.0086,E,2,7,1.16,35.7,M,-29.4,M,0000,0000*58
$GPGSA,A,3,21,29,25,18,12,31,05,,,,,,1.45,1.16,0.87*09
$GPGSV,3,1,09,21,72,288,46,29,46,127,43,25,46,040,37,42,41,046,40*7E
$GPGSV,3,2,09,31,35,288,24,18,23,006,19,05,17,132,32,12,09,042,16*7E
$GPGSV,3,3,09,16,05,221,*43
$GPRMC,042412.200,A,3158.7522,S,11549.0086,E,0.08,33.47,100315,,,D*43
$GPGGA,042412.400,3158.7522,S,11549.0086,E,2,7,1.16,35.7,M,-29.4,M,0000,0000*5E
$GPGSA,A,3,21,29,25,18,12,31,05,,,,,,1.45,1.16,0.87*09
$GPGSV,3,1,09,21,72,288,46,29,46,127,43,25,46,040,37,42,41,046,40*7E
$GPGSV,3,2,09,31,35,288,23,18,23,006,19,05,17,132,32,12,09,042,16*79
$GPGSV,3,3,09,16,05,221,*43
$GPRMC,042412.400,A,3158.7522,S,11549.0086,E,0.07,33.60,100315,,,D*4F
$GPGGA,042412.600,3158.7521,S,11549.0086,E,2,7,1.16,35.8,M,-29.4,M,0000,0000*50
$GPGSA,A,3,21,29,25,18,12,31,05,,,,,,1.45,1.16,0.87*09
$GPGSV,3,1,09,21,72,288,46,29,46,127,43,25,46,040,37,42,41,046,40*7E
$GPGSV,3,2,09,31,35,288,22,18,23,006,19,05,17,132,32,12,09,042,16*78
$GPGSV,3,3,09,16,05,221,*43
$GPRMC,042412.600,A,3158.7521,S,11549.0086,E,0.07,33.85,100315,,,D*45
$GPGGA,042412.800,3158.7521,S,11549.0086,E,2,7,1.16,35.8,M,-29.4,M,0000,0000*5E
$GPGSA,A,3,21,29,25,18,12,31,05,,,,,,1.45,1.16,0.87*09
$GPGSV,3,1,09,21,72,288,46,29,46,127,43,25,46,040,37,42,41,046,40*7E
$GPGSV,3,2,09,31,35,288,21,18,23,006,19,05,17,132,32,12,09,042,16*7B
$GPGSV,3,3,09,16,05,221,*43
$GPRMC,042412.800,A,3158.7521,S,11549.0086,E,0.06,33.82,100315,,,D*4D
$GPGGA,042413.000,3158.7521,S,11549.0086,E,2,7,1.16,35.9,M,-29.4,M,0000,0000*56
$GPGSA,A,3,21,29,25,18,12,31,05,,,,,,1.45,1.16,0.87*09
$GPGSV,3,1,09,21,72,288,46,29,46,127,42,25,46,040,37,42,41,046,39*71
$GPGSV,3,2,09,31,35,288,22,18,23,006,19,05,17,132,32,12,09,042,16*78
$GPGSV,3,3,09,16,05,221,*43
$GPRMC,042413.000,A,3158.7521,S,11549.0086,E,0.07,33.74,100315,,,D*4C
$GPGGA,042413.200,3158.7521,S,11549.0086,E,2,7,1.16,35.9,M,-29.4,M,0000,0000*54
$GPGSA,A,3,21,29,25,18,12,31,05,,,,,,1.45,1.16,0.87*09
$GPGSV,3,1,09,21,72,288,46,29,46,127,42,25,46,040,37,42,41,046,39*71
$GPGSV,3,2,09,31,35,288,22,18,23,006,19,05,17,132,32,12,09,042,16*78
$GPGSV,3,3,09,16,05,221,*43
$GPRMC,042413.200,A,3158.7521,S,11549.0086,E,0.05,33.59,100315,,,D*43
$GPGGA,042413.400,3158.7520,S,11549.0086,E,2,7,1.16,35.9,M,-29.4,M,0000,0000*53
$GPGSA,A,3,21,29,25,18,12,31,05,,,,,,1.45,1.16,0.87*09
$GPGSV,3,1,09,21,72,288,46,29,46,127,42,25,46,040,37,42,41,046,39*71
$GPGSV,3,2,09,31,35,288,22,18,23,006,19,05,17,132,32,12,09,042,16*78
$GPGSV,3,3,09,16,05,221,*43
$GPRMC,042413.400,A,3158.7520,S,11549.0086,E,0.09,33.34,100315,,,D*43
$GPGGA,042413.600,3158.7520,S,11549.0086,E,2,7,1.16,35.9,M,-29.4,M,0000,0000*51
$GPGSA,A,3,21,29,25,18,12,31,05,,,,,,1.45,1.16,0.87*09
$GPGSV,3,1,09,21,72,288,46,29,46,127,42,25,46,040,37,42,41,046,39*71
$GPGSV,3,2,09,31,35,288,22,18,23,006,19,05,17,132,32,12,09,042,16*78
$GPGSV,3,3,09,16,05,221,*43
$GPRMC,042413.600,A,3158.7520,S,11549.0086,E,0.08,32.79,100315,,,D*48
$GPGGA,042413.800,3158.7520,S,11549.0086,E,2,7,1.23,35.9,M,-29.4,M,0000,0000*59
$GPGSA,A,3,21,29,25,18,12,31,05,,,,,,2.15,1.23,1.76*06
$GPGSV,3,1,09,21,72,288,46,29,46,127,42,25,46,040,37,42,41,046,39*71
$GPGSV,3,2,09,31,35,288,21,18,23,006,19,05,17,132,32,12,09,042,16*7B
$GPGSV,3,3,09,16,05,221,*43
$GPRMC,042413.800,A,3158.7520,S,11549.0086,E,0.06,33.04,100315,,,D*43
$GPGGA,042414.000,3158.7520,S,11549.0086,E,2,6,1.16,35.9,M,-29.4,M,0000,0000*51
$GPGSA,A,3,21,29,25,12,31,05,,,,,,,1.45,1.16,0.87*00
$GPGSV,3,1,09,21,72,288,46,29,46,127,42,25,46,040,38,42,41,046,39*7E
$GPGSV,3,2,09,31,35,288,21,18,23,006,19,05,17,132,32,12,09,042,16*7B
$GPGSV,3,3,09,16,05,221,*43
$GPRMC,042414.000,A,3158.7520,S,11549.0086,E,0.04,32.58,100315,,,D*46
$GPGGA,042414.200,3158.7520,S,11549.0086,E,2,6,1.16,35.9,M,-29.4,M,0000,0000*53
$GPGSA,A,3,21,29,25,12,31,05,,,,,,,1.45,1.16,0.87*00
$GPGSV,3,1,09,21,72,288,46,29,46,127,42,25,46,040,38,42,41,046,39*7E
$GPGSV,3,2,09,31,35,288,21,18,23,006,19,05,17,132,32,12,09,042,16*7B
$GPGSV,3,3,09,16,05,221,*43
$GPRMC,042414.200,A,3158.7520,S,11549.0086,E,0.03,32.51,100315,,,D*4A
$GPGGA,042414.400,3158.7520,S,11549.0086,E,2,7,1.16,36.0,M,-29.47,29,46,127,36,25,46,040,36,42,41,046,41*7D
$GPGSV,3,2,09,31,35,289,29,18,23,006,15,05,17,132,33,12,09,042,17*7E
$GPGSV,3,3,09,16,06,221,*40
$GPRMC,042443.000,A,3158.7483,S,11549.0093,E,0.23,203.15,100315,,,D*74
$GPGGA,042443.200,3158.7478,S,11549.0092,E,2,6,1.16,37.9,M,-29.4,M,0000,0000*5A
$GPGSA,A,3,21,29,25,12,31,05,,,,,,,1.45,1.16,0.87*00
$GPGSV,3,1,09,21,72,288,47,29,46,127,35,25,46,040,36,42,41,046,41*7E
$GPGSV,3,2,09,31,35,289,29,18,23,006,15,05,17,132,33,12,09,042,17*7E
$GPGSV,3,3,09,16,06,221,*40
$GPRMC,042443.200,A,3158.7478,S,11549.0092,E,0.20,203.96,100315,,,D*7B
$GPGGA,042443.400,3158.7473,S,11549.0092,E,2,6,1.16,38.0,M,-29.4,M,0000,0000*51
$GPGSA,A,3,21,29,25,12,31,05,,,,,,,1.45,1.16,0.87*00
$GPGSV,3,1,09,21,72,288,47,29,46,127,34,25,46,040,36,42,41,046,41*7F
$GPGSV,3,2,09,31,35,289,29,18,23,006,15,05,17,132,33,12,09,042,17*7E
$GPGSV,3,3,09,16,06,221,*40
$GPRMC,042443.400,A,3158.7473,S,11549.0092,E,0.16,204.68,100315,,,D*75
$GPGGA,042443.600,3158.7467,S,11549.0092,E,2,6,1.16,38.2,M,-29.4,M,0000,0000*54
$GPGSA,A,3,21,29,25,12,31,05,,,,,,,1.45,1.16,0.87*00
$GPGSV,3,1,09,21,72,288,47,29,46,127,33,25,46,040,36,42,41,046,41*78
$GPGSV,3,2,09,31,35,289,29,18,23,006,15,05,17,132,33,12,09,042,18*71
$GPGSV,3,3,09,16,06,221,*40
$GPRMC,042443.600,A,3158.7467,S,11549.0092,E,0.15,205.59,100315,,,D*72
$GPGGA,042443.800,3158.7460,S,11549.0092,E,2,6,1.16,38.3,M,-29.4,M,0000,0000*5C
$GPGSA,A,3,21,29,25,12,31,05,,,,,,,1.45,1.16,0.87*00
$GPGSV,3,1,09,21,72,287,47,29,46,127,33,25,46,040,36,42,41,046,41*77
$GPGSV,3,2,09,31,35,289,29,18,23,006,15,05,17,132,33,12,09,042,19*70
$GPGSV,3,3,09,16,06,221,*40
$GPRMC,042443.800,A,3158.7460,S,11549.0092,E,0.14,206.61,100315,,,D*72
$GPGGA,042444.000,3158.7455,S,11549.0092,E,2,6,1.16,38.4,M,-29.4,M,0000,0000*52
$GPGSA,A,3,21,29,25,12,31,05,,,,,,,1.45,1.16,0.87*00
$GPGSV,3,1,09,21,72,287,47,29,46,127,33,25,46,040,36,42,41,046,41*77
$GPGSV,3,2,09,31,35,289,29,18,23,006,15,05,17,132,33,12,09,042,19*70
$GPGSV,3,3,09,16,06,221,*40
$GPRMC,042444.000,A,3158.7455,S,11549.0092,E,0.13,207.37,100315,,,D*7E
$GPGGA,042444.200,3158.7449,S,11549.0091,E,2,6,1.16,38.6,M,-29.4,M,0000,0000*5C
$GPGSA,A,3,21,29,25,12,31,05,,,,,,,1.45,1.16,0.87*00
$GPGSV,3,1,09,21,72,287,47,29,46,127,33,25,46,040,36,42,41,046,41*77
$GPGSV,3,2,09,31,35,289,29,18,23,006,15,05,17,132,33,12,09,042,18*71
$GPGSV,3,3,09,16,06,221,*40
$GPRMC,042444.200,A,3158.7449,S,11549.0091,E,0.11,208.26,100315,,,D*7F
$GPGGA,042444.400,3158.7445,S,11549.0091,E,2,6,1.16,38.7,M,-29.4,M,0000,0000*57
$GPGSA,A,3,21,29,25,12,31,05,,,,,,,1.45,1.16,0.87*00
$GPGSV,3,1,09,21,72,287,47,29,46,127,33,25,46,040,36,42,41,046,41*77
$GPGSV,3,2,09,31,35,289,29,18,23,006,15,05,17,132,33,12,09,042,18*71
$GPGSV,3,3,09,16,06,221,*40
$GPRMC,042444.400,A,3158.7445,S,11549.0091,E,0.09,208.85,100315,,,D*75
$GPGGA,042444.600,3158.7441,S,11549.0091,E,2,6,1.16,38.7,M,-29.4,M,0000,0000*51
$GPGSA,A,3,21,29,25,12,31,05,,,,,,,1.45,1.16,0.87*00
$GPGSV,3,1,09,21,72,287,47,29,46,127,33,25,46,040,36,42,41,046,41*77
$GPGSV,3,2,09,31,35,289,29,18,23,006,15,05,17,132,33,12,09,042,18*71
$GPGSV,3,3,09,16,06,221,*40
$GPRMC,042444.600,A,3158.7441,S,11549.0091,E,0.08,209.43,100315,,,D*79
$GPGGA,042444.800,3158.7441,S,11549.0092,E,2,6,1.16,38.8,M,-29.4,M,0000,0000*53
$GPGSA,A,3,21,29,25,12,31,05,,,,,,,1.45,1.16,0.87*00
$GPGSV,3,1,09,21,72,287,47,29,46,127,33,25,46,040,36,42,41,046,41*77
$GPGSV,3,2,09,31,35,289,29,18,23,006,15,05,17,132,34,12,09,042,18*76
$GPGSV,3,3,09,16,06,221,*40
$GPRMC,042444.800,A,3158.7441,S,11549.0092,E,0.07,210.17,100315,,,D*72
$GPGGA,042445.000,3158.7441,S,11549.0092,E,2,6,1.16,38.8,M,-29.4,M,0000,0000*5A
$GPGSA,A,3,21,29,25,12,31,05,,,,,,,1.45,1.16,0.87*00
$GPGSV,3,1,09,21,72,287,47,29,46,127,33,25,46,040,36,42,41,046,41*77
$GPGSV,3,2,09,31,35,289,29,18,23,006,15,05,17,132,34,12,09,042,18*76
$GPGSV,3,3,09,16,06,221,*40
$GPRMC,042445.000,A,3158.7441,S,11549.0092,E,0.07,210.63,100315,,,D*78
$GPGGA,042445.200,3158.7441,S,11549.0092,E,2,6,1.16,38.8,M,-29.4,M,0000,0000*58
$GPGSA,A,3,21,29,25,12,31,05,,,,,,,1.45,1.16,0.87*00
$GPGSV,3,1,09,21,72,287,47,29,46,127,33,25,46,040,36,42,41,046,41*77
$GPGSV,3,2,09,31,35,289,29,18,23,006,15,05,17,132,34,12,09,042,18*76
$GPGSV,3,3,09,16,06,221,*40
$GPRMC,042445.200,A,3158.7441,S,11549.0092,E,0.12,212.35,100315,,,D*7F
$GPGGA,042445.400,3158.7441,S,11549.0092,E,2,6,1.16,38.8,M,-29.4,M,0000,0000*5E
$GPGSA,A,3,21,29,25,12,31,05,,,,,,,1.45,1.16,0.87*00
$GPGSV,3,1,09,21,72,287,47,29,46,127,32,25,46,040,36,42,41,046,41*76
$GPGSV,3,2,09,31,35,289,29,18,23,006,15,05,17,132,34,12,09,042,18*76
$GPGSV,3,3,09,16,06,221,*40
$GPRMC,042445.400,A,3158.7441,S,11549.0092,E,0.13,214.25,100315,,,D*7F
$GPGGA,042445.600,3158.7441,S,11549.0092,E,2,6,1.16,38.8,M,-29.4,M,0000,0000*5C
$GPGSA,A,3,21,29,25,12,31,05,,,,,,,1.45,1.16,0.87*00
$GPGSV,3,1,09,21,72,287,47,29,46,127,31,25,46,040,36,42,41,046,41*75
$GPGSV,3,2,09,31,35,289,30,18,23,006,15,05,17,132,34,12,09,042,18*7E
$GPGSV,3,3,09,16,06,221,*40
$GPRMC,042445.600,A,3158.7441,S,11549.0092,E,0.11,214.25,100315,,,D*7F
$GPGGA,042445.800,3158.7440,S,11549.0092,E,2,6,1.16,38.8,M,-29.4,M,0000,0000*53
$GPGSA,A,3,21,29,25,12,31,05,,,,,,,1.45,1.16,0.87*00
$GPGSV,3,1,09,21,72,287,47,29,46,127,30,25,46,040,36,42,41,046,41*74
$GPGSV,3,2,09,31,35,289,31,18,23,006,15,05,17,132,34,12,09,042,18*7F
$GPGSV,3,3,09,16,06,221,*40
$GPRMC,042445.800,A,3158.7440,S,11549.0092,E,0.11,214.25,100315,,,D*70
$GPGGA,042446.000,3158.7440,S,11549.0092,E,2,6,1.16,38.8,M,-29.4,M,0000,0000*58
$GPGSA,A,3,21,29,25,12,31,05,,,,,,,1.45,1.16,0.87*00
$GPGSV,3,1,09,21,72,287,47,29,46,127,29,25,46,040,36,42,41,046,41*7C
$GPGSV,3,2,09,31,35,289,31,18,23,006,15,05,17,132,34,12,09,042,18*7F
$GPGSV,3,3,09,16,06,221,*40
$GPRMC,042446.000,A,3158.7440,S,11549.0092,E,0.13,214.25,100315,,,D*79
$GPGGA,042446.200,3158.7440,S,11549.0092,E,2,6,1.16,38.8,M,-29.4,M,0000,0000*5A
$GPGSA,A,3,21,29,25,12,31,05,,,,,,,1.45,1.16,0.87*00
$GPGSV,3,1,09,21,72,287,47,29,46,127,29,25,46,040,36,42,41,046,41*7C
$GPGSV,3,2,09,31,35,289,31,18,23,006,15,05,17,132,34,12,09,042,19*7E
$GPGSV,3,3,09,16,06,221,*40
$GPRMC,042446.200,A,3158.7440,S,11549.0092,E,0.15,214.25,100315,,,D*7D
$GPGGA,042446.400,3158.7440,S,11549.0092,E,2,6,1.16,38.8,M,-29.4,M,0000,0000*5C
$GPGSA,A,3,21,29,25,12,31,05,,,,,,,1.45,1.16,0.87*00
$GPGSV,3,1,09,21,72,287,48,29,46,127,29,25,46,040,36,42,41,046,41*73
$GPGSV,3,2,09,31,35,289,31,18,23,006,15,05,17,132,34,12,09,042,19*7E
$GPGSV,3,3,09,16,06,221,*40
$GPRMC,042446.400,A,3158.7440,S,11549.0092,E,0.16,214.25,100315,,,D*78
$GPGGA,042446.600,3158.7440,S,11549.0092,E,2,6,1.23,38.8,M,-29.4,M,0000,0000*58
$GPGSA,A,3,21,29,25,12,31,05,,,,,,,2.14,1.23,1.75*0D
$GPGSV,3,1,09,21,72,287,48,29,46,127,38,25,46,040,36,42,41,046,41*73
$GPGSV,3,2,09,31,35,289,31,18,23,006,15,05,17,132,34,12,09,042,19*7E
$GPGSV,3,3,09,16,06,221,*40
$GPRMC,042446.600,A,3158.7440,S,11549.0092,E,0.14,214.25,100315,,,D*78
$GPGGA,042446.800,3158.7440,S,11549.0092,E,2,6,1.16,38.8,M,-29.4,M,0000,0000*50
$GPGSA,A,3,21,29,25,12,31,05,,,,,,,1.45,1.16,0.87*00
$GPGSV,3,1,09,21,72,287,48,29,46,127,39,25,46,040,36,42,41,046,41*72
$GPGSV,3,2,09,31,35,289,31,18,23,006,15,05,17,132,33,12,09,042,19*79
$GPGSV,3,3,09,16,06,221,*40
$GPRMC,042446.800,A,3158.7440,S,11549.0092,E,0.13,214.25,100315,,,D*71
$GPGGA,042447.000,3158.7440,S,11549.0092,E,2,6,1.23,38.8,M,-29.4,M,0000,0000*5F
$GPGSA,A,3,21,29,25,12,31,05,,,,,,,2.14,1.23,1.75*0D
$GPGSV,3,1,09,21,72,287,48,29,46,127,40,25,46,040,36,42,41,046,40*7D
$GPGSV,3,2,09,31,35,289,32,18,23,006,15,05,17,132,32,12,09,042,19*7B
$GPGSV,3,3,09,16,06,221,*40
$GPRMC,042447.000,A,3158.7440,S,11549.0092,E,0.16,214.25,100315,,,D*7D
$GPGGA,042447.200,3158.7440,S,11549.0092,E,2,6,1.23,38.8,M,-29.4,M,0000,0000*5D
$GPGSA,A,3,21,29,25,12,31,05,,,,,,,2.14,1.23,1.75*0D
$GPGSV,3,1,09,21,72,287,48,29,46,127,40,25,46,040,36,42,41,046,40*7D
$GPGSV,3,2,09,31,35,289,32,18,23,006,15,05,17,132,31,12,09,042,19*78
$GPGSV,3,3,09,16,06,221,*40
$GPRMC,042447.200,A,3158.7440,S,11549.0092,E,0.12,214.25,100315,,,D*7B
$GPGGA,042447.400,3158.7440,S,11549.0092,E,2,5,1.67,38.8,M,-29.4,M,0000,0000*58
$GPGSA,A,3,21,29,25,12,31,,,,,,,,2.83,1.67,2.28*0D
$GPGSV,3,1,09,21,72,287,48,29,46,127,40,25,46,040,35,42,41,046,40*7E
$GPGSV,3,2,09,31,35,289,32,18,23,006,15,05,17,132,30,12,09,042,18*78
$GPGSV,3,3,09,16,06,221,*40
$GPRMC,042447.400,A,3158.7440,S,11549.0092,E,0.55,214.25,100315,,,D*7E
$GPGGA,042447.600,3158.7439,S,11549.0092,E,2,7,1.07,38.8,M,-29.4,M,0000,0000*50
$GPGSA,A,3,21,29,25,18,12,31,05,,,,,,1.38,1.07,0.87*03
$GPGSV,3,1,09,21,72,287,46,29,46,127,40,25,46,040,35,42,41,046,*74
$GPGSV,3,2,09,31,35,289,32,18,23,006,15,05,17,132,29,12,09,042,18*70
$GPGSV,3,3,09,16,06,221,*40
$GPRMC,042447.600,A,3158.7439,S,11549.0092,E,0.37,214.25,100315,,,D*76
$GPGGA,042447.800,3158.7439,S,11549.0092,E,2,7,1.16,38.8,M,-29.4,M,0000,0000*5E
$GPGSA,A,3,21,29,25,18,12,31,05,,,,,,2.08,1.16,1.73*09
$GPGSV,3,1,09,21,72,287,45,29,46,127,40,25,46,040,35,42,41,046,*77
$GPGSV,3,2,09,31,35,289,32,18,23,006,15,05,17,132,28,12,09,042,18*71
$GPGSV,3,3,09,16,06,221,*40
$GPRMC,042447.800,A,3158.7439,S,11549.0092,E,0.31,214.25,100315,,,D*7E
$GPGGA,042448.000,3158.7439,S,11549.0092,E,2,6,1.28,38.8,M,-29.4,M,0000,0000*55
$GPGSA,A,3,21,29,25,18,12,31,,,,,,,1.57,1.28,0.92*06
$GPGSV,3,1,09,21,72,287,44,29,46,127,40,25,46,040,34,42,41,046,*77
$GPGSV,3,2,09,31,35,289,32,18,23,006,15,05,17,132,21,12,09,042,18*78
$GPGSV,3,3,09,16,06,221,*40
$GPRMC,042448.000,A,3158.7439,S,11549.0092,E,0.21,214.25,100315,,,D*78
$GPGGA,042448.200,3158.7439,S,11549.0092,E,2,6,1.28,38.8,M,-29.4,M,0000,0000*57
$GPGSA,A,3,21,29,25,18,12,31,,,,,,,1.57,1.28,0.92*06
$GPGSV,3,1,09,21,72,287,44,29,46,127,40,25,46,040,33,42,41,046,29*7B
$GPGSV,3,2,09,31,35,289,24,18,23,006,15,05,17,132,21,12,09,042,18*7F
$GPGSV,3,3,09,16,06,221,*40
$GPRMC,042448.200,A,3158.7439,S,11549.0092,E,1.22,214.25,100315,,,D*78
$GPGGA,042448.400,3158.7439,S,11549.0091,E,2,7,1.07,38.9,M,-29.4,M,0000,0000*5F
$GPGSA,A,3,21,29,25,18,12,31,05,,,,,,1.38,1.07,0.87*03
$GPGSV,3,1,09,21,72,287,30,29,46,127,39,25,46,040,32,42,41,046,30*7F
$GPGSV,3,2,09,31,35,289,24,18,23,006,15,05,17,132,21,12,09,042,18*7F
$GPGSV,3,3,09,16,06,221,*40
$GPRMC,042448.400,A,3158.7439,S,11549.0091,E,0.77,214.25,100315,,,D*7C
$GPGGA,042448.600,3158.7439,S,11549.0091,E,2,7,1.07,38.9,M,-29.4,M,0000,0000*5D
$GPGSA,A,3,21,29,25,18,12,31,05,,,,,,1.38,1.07,0.87*03
$GPGSV,3,1,09,21,72,287,30,29,46,127,38,25,46,040,31,42,41,046,30*7D
$GPGSV,3,2,09,31,35,289,24,18,23,006,15,05,17,132,21,12,09,042,18*7F
$GPGSV,3,3,09,16,06,221,*40
$GPRMC,042448.600,A,3158.7439,S,11549.0091,E,0.74,214.25,100315,,,D*7D
$GPGGA,042448.800,3158.7439,S,11549.0090,E,2,7,1.07,38.9,M,-29.4,M,0000,0000*52
$GPGSA,A,3,21,29,25,18,12,31,05,,,,,,1.38,1.07,0.87*03
$GPGSV,3,1,09,21,72,287,30,29,46,127,37,25,46,040,31,42,41,046,30*72
$GPGSV,3,2,09,31,35,289,24,18,23,006,15,05,17,132,21,12,09,042,17*70
$GPGSV,3,3,09,16,06,221,*40
$GPRMC,042448.800,A,3158.7439,S,11549.0090,E,0.74,214.25,100315,,,D*72
$GPGGA,042449.000,3158.7439,S,11549.0090,E,2,7,1.07,38.9,M,-29.4,M,0000,0000*5B
$GPGSA,A,3,21,29,25,18,12,31,05,,,,,,1.38,1.07,0.87*03
$GPGSV,3,1,09,21,72,287,30,29,46,127,36,25,46,040,31,42,41,046,34*77
$GPGSV,3,2,09,31,35,289,24,18,23,006,15,05,17,132,21,12,09,042,16*71
$GPGSV,3,3,09,16,06,221,*40
$GPRMC,042449.000,A,3158.7439,S,11549.0090,E,0.77,260.91,100315,,,D*74
$GPGGA,042449.200,3158.7439,S,11549.0089,E,2,7,1.07,38.9,M,-29.4,M,0000,0000*51
$GPGSA,A,3,21,29,25,18,12,31,05,,,,,,1.38,1.07,0.87*03
$GPGSV,3,1,09,21,72,287,30,29,46,127,36,25,46,040,30,42,41,046,29*7A
$GPGSV,3,2,09,31,35,289,24,18,23,006,15,05,17,132,21,12,09,042,16*71
$GPGSV,3,3,09,16,06,221,*40
$GPRMC,042449.200,A,3158.7439,S,11549.0089,E,0.77,263.33,100315,,,D*75
$GPGGA,042449.400,3158.7439,S,11549.0089,E,2,7,1.07,39.0,M,-29.4,M,0000,0000*5F
$GPGSA,A,3,21,29,25,18,12,31,05,,,,,,1.38,1.07,0.86*02
$GPGSV,3,1,09,21,72,287,31,29,46,127,35,25,46,040,29,42,41,046,29*70
$GPGSV,3,2,09,31,35,289,22,18,23,006,15,05,17,132,21,12,09,042,16*77
$GPGSV,3,3,09,16,06,221,*40
$GPRMC,042449.400,A,3158.7439,S,11549.0089,E,0.78,265.08,100315,,,D*72
$GPGGA,042449.600,3158.7439,S,11549.0088,E,2,7,1.07,39.0,M,-29.4,M,0000,0000*5C
$GPGSA,A,3,21,29,25,18,12,31,05,,,,,,1.38,1.07,0.87*03
$GPGSV,3,1,09,21,72,287,32,29,46,127,35,25,46,040,29,42,41,046,*78
$GPGSV,3,2,09,31,35,289,21,18,23,006,15,05,17,132,21,12,09,042,16*74
$GPGSV,3,3,09,16,06,221,*40
$GPRMC,042449.600,A,3158.7439,S,11549.0088,E,0.78,266.69,100315,,,D*75
$GPGGA,042449.800,3158.7439,S,11549.0088,E,2,7,1.07,39.0,M,-29.4,M,0000,0000*52
$GPGSA,A,3,21,29,25,18,12,31,05,,,,,,1.38,1.07,0.87*03
$GPGSV,3,1,09,21,72,287,33,29,46,127,35,25,46,040,29,42,41,046,*79
$GPGSV,3,2,09,31,35,289,20,18,23,006,15,05,17,132,22,12,09,042,16*76
$GPGSV,3,3,09,16,06,221,*40
$GPRMC,042449.800,A,3158.7439,S,11549.0088,E,0.78,267.90,100315,,,D*7C
$GPGGA,042450.000,3158.7439,S,11549.0087,E,2,7,1.07,39.0,M,-29.4,M,0000,0000*5D
$GPGSA,A,3,21,29,25,18,12,31,05,,,,,,1.38,1.07,0.87*03
$GPGSV,3,1,09,21,72,287,32,29,46,127,27,25,46,040,29,42,41,046,*7B
$GPGSV,3,2,09,31,35,289,20,18,23,006,15,05,17,132,22,12,09,042,16*76
$GPGSV,3,3,09,16,06,221,*40
$GPRMC,042450.000,A,3158.7439,S,11549.0087,E,0.76,268.95,100315,,,D*77
$GPGGA,042450.200,3158.7439,S,11549.0087,E,2,7,1.07,39.0,M,-29.4,M,0000,0000*5F
$GPGSA,A,3,21,29,25,18,12,31,05,,,,,,1.38,1.07,0.87*03
$GPGSV,3,1,09,21,72,287,32,29,46,127,27,25,46,040,30,42,41,046,*73
$GPGSV,3,2,09,31,35,289,20,18,23,006,15,05,17,132,22,12,09,042,16*76
$GPGSV,3,3,09,16,06,221,*40
$GPRMC,042450.200,A,3158.7439,S,11549.0087,E,0.75,269.84,100315,,,D*77
$GPGGA,042450.400,3158.7440,S,11549.0086,E,2,7,1.07,39.0,M,-29.4,M,0000,0000*56
$GPGSA,A,3,21,29,25,18,12,31,05,,,,,,1.38,1.07,0.87*03
$GPGSV,3,1,09,21,72,287,32,29,46,127,34,25,46,040,31,42,41,046,*70
$GPGSV,3,2,09,31,35,289,20,18,23,006,15,05,17,132,22,12,09,042,16*76
$GPGSV,3,3,09,16,06,221,*40
$GPRMC,042450.400,A,3158.7440,S,11549.0086,E,0.73,270.56,100315,,,D*7F
$GPGGA,042450.600,3158.7440,S,11549.0086,E,2,6,1.16,39.0,M,-29.4,M,0000,0000*55
$GPGSA,A,3,21,29,25,12,31,05,,,,,,,1.45,1.16,0.87*00
$GPGSV,3,1,09,21,72,287,32,29,46,127,34,25,46,040,32,42,41,046,*73
$GPGSV,3,2,09,31,35,289,29,18,23,006,15,05,17,132,22,12,09,042,16*7F
$GPGSV,3,3,09,16,06,221,*40
$GPRMC,042450.600,A,3158.7440,S,11549.0086,E,0.72,271.18,100315,,,D*77
$GPGGA,042450.800,3158.7440,S,11549.0085,E,2,6,1.16,39.1,M,-29.4,M,0000,0000*59
$GPGSA,A,3,21,29,25,12,31,05,,,,,,,1.45,1.16,0.87*00
$GPGSV,3,1,09,21,72,287,32,29,46,127,36,25,46,040,33,42,41,046,*70
$GPGSV,3,2,09,31,35,289,29,18,23,006,15,05,17,132,22,12,09,042,16*7F
$GPGSV,3,3,09,16,06,221,*40
$GPRMC,042450.800,A,3158.7440,S,11549.0085,E,0.70,271.56,100315,,,D*72
$GPGGA,042451.000,3158.7442,S,11549.0087,E,2,6,1.16,39.3,M,-29.4,M,0000,0000*52
$GPGSA,A,3,21,29,25,12,31,05,,,,,,,1.45,1.16,0.87*00
$GPGSV,3,1,09,21,72,287,33,29,46,127,43,25,46,040,35,42,41,046,31*77
$GPGSV,3,2,09,31,35,289,29,18,23,006,15,05,17,132,22,12,09,042,16*7F
$GPGSV,3,3,09,16,06,221,*40
$GPRMC,042451.000,A,3158.7442,S,11549.0087,E,0.68,271.64,100315,,,D*73
$GPGGA,042451.200,3158.7446,S,11549.0091,E,2,6,1.16,39.8,M,-29.4,M,0000,0000*58
$GPGSA,A,3,21,29,25,12,31,05,,,,,,,1.45,1.16,0.87*00
$GPGSV,3,1,09,21,72,287,34,29,46,127,44,25,46,040,37,42,41,046,31*75
$GPGSV,3,2,09,31,35,289,29,18,23,006,15,05,17,132,22,12,09,042,16*7F
$GPGSV,3,3,09,16,06,221,*40
$GPRMC,042451.200,A,3158.7446,S,11549.0091,E,0.66,271.56,100315,,,D*7D
$GPGGA,042451.400,3158.7454,S,11549.0101,E,2,6,1.16,40.1,M,-29.4,M,0000,0000*52
$GPGSA,A,3,21,29,25,12,31,05,,,,,,,1.45,1.16,0.87*00
$GPGSV,3,1,09,21,72,287,35,29,46,127,45,25,46,040,38,42,41,046,31*7A
$GPGSV,3,2,09,31,35,289,29,18,23,006,15,05,17,132,22,12,09,042,16*7F
$GPGSV,3,3,09,16,06,221,*40
$GPRMC,042451.400,A,3158.7454,S,11549.0101,E,0.23,271.06,100315,,,D*74
$GPGGA,042451.600,3158.7458,S,11549.0104,E,2,6,1.16,40.3,M,-29.4,M,0000,0000*5B
$GPGSA,A,3,21,29,25,12,31,05,,,,,,,1.45,1.16,0.87*00
$GPGSV,3,1,09,21,72,287,36,29,46,127,45,25,46,040,39,42,41,046,33*7A
$GPGSV,3,2,09,31,35,289,29,18,23,006,15,05,17,132,22,12,09,042,16*7F
$GPGSV,3,3,09,16,06,221,*40
$GPRMC,042451.600,A,3158.7458,S,11549.0104,E,0.25,270.26,100315,,,D*7A
$GPGGA,042451.800,3158.7460,S,11549.0102,E,2,6,1.16,40.4,M,-29.4,M,0000,0000*5F
$GPGSA,A,3,21,29,25,12,31,05,,,,,,,1.45,1.16,0.87*00
$GPGSV,3,1,09,21,72,287,36,29,46,127,44,25,46,040,39,42,41,046,33*7B
$GPGSV,3,2,09,31,35,289,30,18,23,006,15,05,17,132,22,12,09,042,16*77
$GPGSV,3,3,09,16,06,221,*40
$GPRMC,042451.800,A,3158.7460,S,11549.0102,E,0.31,270.29,100315,,,D*73
$GPGGA,042452.000,3158.7464,S,11549.0103,E,2,6,1.16,40.5,M,-29.4,M,0000,0000*50
$GPGSA,A,3,21,29,25,12,31,05,,,,,,,1.45,1.16,0.87*00
$GPGSV,3,1,09,21,72,287,37,29,46,127,44,25,46,040,39,42,41,046,37*7E
$GPGSV,3,2,09,31,35,289,31,18,23,006,15,05,17,132,22,12,09,042,16*76
$GPGSV,3,3,09,16,06,221,*40
$GPRMC,042452.000,A,3158.7464,S,11549.0103,E,0.66,270.15,100315,,,D*70
$GPGGA,042452.200,3158.7466,S,11549.0102,E,2,6,1.16,40.6,M,-29.4,M,0000,0000*52
$GPGSA,A,3,21,29,25,12,31,05,,,,,,,1.45,1.16,0.87*00
$GPGSV,3,1,09,21,72,287,38,29,46,127,44,25,46,040,39,42,41,046,*75
$GPGSV,3,2,09,31,35,289,30,18,23,006,15,05,17,132,24,12,09,042,16*71
$GPGSV,3,3,09,16,06,221,*40
$GPRMC,042452.200,A,3158.7466,S,11549.0102,E,1.81,268.43,100315,,,D*73
$GPGGA,042452.400,3158.7468,S,11549.0101,E,2,6,1.16,40.7,M,-29.4,M,0000,0000*58
$GPGSA,A,3,21,29,25,12,31,05,,,,,,,1.45,1.16,0.87*00
$GPGSV,3,1,09,21,72,287,39,29,46,127,44,25,46,040,39,42,41,046,30*77
$GPGSV,3,2,09,31,35,289,30,18,23,006,15,05,17,132,25,12,09,042,16*70
$GPGSV,3,3,09,16,06,221,*40
$GPRMC,042452.400,A,3158.7468,S,11549.0101,E,2.33,258.28,100315,,,D*7C
$GPGGA,042452.600,3158.7469,S,11549.0102,E,2,7,1.07,40.7,M,-29.4,M,0000,0000*59
$GPGSA,A,3,21,29,25,18,12,31,05,,,,,,1.38,1.07,0.87*03
$GPGSV,3,1,09,21,72,287,38,29,46,127,42,25,46,040,39,42,41,046,30*70
$GPGSV,3,2,09,31,35,289,30,18,23,006,16,05,17,132,25,12,09,042,16*73
$GPGSV,3,3,09,16,06,221,*40
$GPRMC,042452.600,A,3158.7469,S,11549.0102,E,1.75,250.04,100315,,,D*7B
$GPGGA,042452.800,3158.7470,S,11549.0101,E,2,6,1.28,40.7,M,-29.4,M,0000,0000*50
$GPGSA,A,3,21,29,25,18,12,31,,,,,,,1.57,1.28,0.92*06
$GPGSV,3,1,09,21,72,287,46,29,46,127,41,25,46,040,39,42,41,046,31*7B
$GPGSV,3,2,09,31,35,289,30,18,23,006,17,05,17,132,25,12,09,042,16*72
$GPGSV,3,3,09,16,06,221,*40
$GPRMC,042452.800,A,3158.7470,S,11549.0101,E,2.53,241.80,100315,,,D*75
$GPGGA,042453.000,3158.7473,S,11549.0102,E,2,6,1.28,40.7,M,-29.4,M,0000,0000*59
$GPGSA,A,3,21,29,25,18,12,31,,,,,,,1.57,1.28,0.92*06
$GPGSV,3,1,09,21,72,287,47,29,46,127,43,25,46,040,38,42,41,046,30*78
$GPGSV,3,2,09,31,35,289,30,18,23,006,18,05,17,132,25,12,09,042,16*7D
$GPGSV,3,3,09,16,06,221,*40
$GPRMC,042453.000,A,3158.7473,S,11549.0102,E,2.48,235.83,100315,,,D*76
$GPGGA,042453.200,3158.7475,S,11549.0104,E,2,7,1.07,40.8,M,-29.4,M,0000,0000*58
$GPGSA,A,3,21,29,25,18,12,31,05,,,,,,1.38,1.07,0.87*03
$GPGSV,3,1,09,21,72,287,47,29,46,127,44,25,46,040,37,42,41,046,31*71
$GPGSV,3,2,09,31,35,289,30,18,23,006,18,05,17,132,26,12,09,042,16*7E
$GPGSV,3,3,09,16,06,221,*40
$GPRMC,042453.200,A,3158.7475,S,11549.0104,E,1.67,228.61,100315,,,D*7A
$GPGGA,042453.400,3158.7477,S,11549.0104,E,2,7,1.07,40.8,M,-29.4,M,0000,0000*5C
$GPGSA,A,3,21,29,25,18,12,31,05,,,,,,1.38,1.07,0.87*03
$GPGSV,3,1,09,21,72,287,47,29,46,127,44,25,46,040,36,42,41,046,31*70
$GPGSV,3,2,09,31,35,289,31,18,23,006,18,05,17,132,27,12,09,042,16*7E
$GPGSV,3,3,09,16,06,221,*40
$GPRMC,042453.400,A,3158.7477,S,11549.0104,E,2.65,217.44,100315,,,D*74
$GPGGA,042453.600,3158.7479,S,11549.0105,E,2,7,1.07,40.8,M,-29.4,M,0000,0000*51
$GPGSA,A,3,21,29,25,18,12,31,05,,,,,,1.38,1.07,0.86*02
$GPGSV,3,1,09,21,72,287,47,29,46,127,42,25,46,040,34,42,41,046,34*71
$GPGSV,3,2,09,31,35,289,31,18,23,006,18,05,17,132,27,12,09,042,16*7E
$GPGSV,3,3,09,16,06,221,*40
$GPRMC,042453.600,A,3158.7479,S,11549.0105,E,2.04,209.07,100315,,,D*76
$GPGGA,042453.800,3158.7480,S,11549.0106,E,2,7,1.07,40.8,M,-29.4,M,0000,0000*5A
$GPGSA,A,3,21,29,25,18,12,31,05,,,,,,1.38,1.07,0.87*03
$GPGSV,3,1,09,21,72,287,47,29,46,127,41,25,46,040,33,42,41,046,36*77
$GPGSV,3,2,09,31,35,289,31,18,23,006,18,05,17,132,29,12,09,042,16*70
$GPGSV,3,3,09,16,06,221,*40
$GPRMC,042453.800,A,3158.7480,S,11549.0106,E,1.53,203.26,100315,,,D*75
$GPGGA,042454.000,3158.7480,S,11549.0107,E,2,6,1.16,40.8,M,-29.4,M,0000,0000*55
$GPGSA,A,3,21,29,25,12,31,05,,,,,,,1.45,1.16,0.87*00
$GPGSV,3,1,09,21,72,287,46,29,46,127,40,25,46,040,34,42,41,046,30*76
$GPGSV,3,2,09,31,35,289,31,18,23,006,18,05,17,132,30,12,09,042,16*78
$GPGSV,3,3,09,16,06,221,*40
$GPRMC,042454.000,A,3158.7480,S,11549.0107,E,2.36,192.90,100315,,,D*7D
$GPGGA,042454.200,3158.7481,S,11549.0108,E,2,6,1.16,40.7,M,-29.4,M,0000,0000*56
$GPGSA,A,3,21,29,25,12,31,05,,,,,,,1.45,1.16,0.87*00
$GPGSV,3,1,09,21,72,287,44,29,46,127,38,25,46,040,42,42,41,046,27*7C
$GPGSV,3,2,09,31,35,289,31,18,23,006,18,05,17,132,31,12,09,042,16*79
$GPGSV,3,3,09,16,06,221,*40
$GPRMC,042454.200,A,3158.7481,S,11549.0108,E,2.42,182.55,100315,,,D*7A
$GPGGA,042454.400,3158.7482,S,11549.0109,E,2,6,1.16,40.7,M,-29.4,M,0000,0000*52
$GPGSA,A,3,21,29,25,12,31,05,,,,,,,1.45,1.16,0.87*00
$GPGSV,3,1,09,21,72,287,43,29,46,127,37,25,46,040,42,42,41,046,25*76
$GPGSV,3,2,09,31,35,289,31,18,23,006,18,05,17,132,29,12,09,042,16*70
$GPGSV,3,3,09,16,06,221,*40
$GPRMC,042454.400,A,3158.7482,S,11549.0109,E,2.47,173.26,100315,,,D*71
$GPGGA,042454.600,3158.7482,S,11549.0111,E,2,6,1.16,40.7,M,-29.4,M,0000,0000*59
$GPGSA,A,3,21,29,25,12,31,05,,,,,,,1.45,1.16,0.87*00
$GPGSV,3,1,09,21,72,287,42,29,46,127,36,25,46,040,42,42,41,046,25*76
$GPGSV,3,2,09,31,35,289,31,18,23,006,18,05,17,132,28,12,09,042,16*71
$GPGSV,3,3,09,16,06,221,*40
$GPRMC,042454.600,A,3158.7482,S,11549.0111,E,2.51,165.72,100315,,,D*7B
$GPGGA,042454.800,3158.7483,S,11549.0112,E,2,7,1.07,40.6,M,-29.4,M,0000,0000*55
$GPGSA,A,3,21,29,25,18,12,31,05,,,,,,1.38,1.07,0.87*03
$GPGSV,3,1,09,21,72,287,42,29,46,127,35,25,46,040,35,42,41,046,25*75
$GPGSV,3,2,09,31,35,289,30,18,23,006,18,05,17,132,27,12,09,042,16*7F
$GPGSV,3,3,09,16,06,221,*40
$GPRMC,042454.800,A,3158.7483,S,11549.0112,E,1.92,161.73,100315,,,D*7E
$GPGGA,042455.000,3158.7484,S,11549.0113,E,2,7,1.07,40.6,M,-29.4,M,0000,0000*5A
$GPGSA,A,3,21,29,25,18,12,31,05,,,,,,1.38,1.07,0.87*03
$GPGSV,3,1,09,21,72,287,42,29,46,127,34,25,46,040,35,42,41,046,30*70
$GPGSV,3,2,09,31,35,289,29,18,23,006,18,05,17,132,26,12,09,042,16*76
$GPGSV,3,3,09,16,06,221,*40
$GPRMC,042455.000,A,3158.7484,S,11549.0113,E,3.29,154.80,100315,,,D*79
$GPGGA,042455.200,3158.7485,S,11549.0115,E,2,7,1.07,40.5,M,-29.4,M,0000,0000*5C
$GPGSA,A,3,21,29,25,18,12,31,05,,,,,,1.38,1.07,0.87*03
$GPGSV,3,1,09,21,72,287,35,29,46,127,33,25,46,040,35,42,41,046,30*77
$GPGSV,3,2,09,31,35,289,29,18,23,006,18,05,17,132,25,12,09,042,16*75
$GPGSV,3,3,09,16,06,221,*40
$GPRMC,042455.200,A,3158.7485,S,11549.0115,E,2.53,151.24,100315,,,D*7B
$GPGGA,042455.400,3158.7486,S,11549.0116,E,2,7,1.07,40.5,M,-29.4,M,0000,0000*5A
$GPGSA,A,3,21,29,25,18,12,31,05,,,,,,1.38,1.07,0.86*02
$GPGSV,3,1,09,21,72,287,37,29,46,127,32,25,46,040,35,42,41,046,30*74
$GPGSV,3,2,09,31,35,289,29,18,23,006,18,05,17,132,25,12,09,042,16*75
$GPGSV,3,3,09,16,06,221,*40
$GPRMC,042455.400,A,3158.7486,S,11549.0116,E,2.28,148.82,100315,,,D*75
$GPGGA,042455.600,3158.7486,S,11549.0118,E,2,7,1.07,40.5,M,-29.4,M,0000,0000*56
$GPGSA,A,3,21,29,25,18,12,31,05,,,,,,1.38,1.07,0.87*03
$GPGSV,3,1,09,21,72,287,37,29,46,127,31,25,46,040,34,42,41,046,29*7E
$GPGSV,3,2,09,31,35,289,29,18,23,006,18,05,17,132,25,12,09,042,16*75
$GPGSV,3,3,09,16,06,221,*40
$GPRMC,042455.600,A,3158.7486,S,11549.0118,E,2.99,145.38,100315,,,D*7F
$GPGGA,042455.800,3158.7487,S,11549.0119,E,2,7,1.07,40.4,M,-29.4,M,0000,0000*59
$GPGSA,A,3,21,29,25,18,12,31,05,,,,,,1.38,1.07,0.86*02
$GPGSV,3,1,09,21,72,287,39,29,46,127,29,25,46,040,33,42,41,046,29*7E
$GPGSV,3,2,09,31,35,289,30,18,23,006,18,05,17,132,25,12,09,042,16*7D
$GPGSV,3,3,09,16,06,221,*40
$GPRMC,042455.800,A,3158.7487,S,11549.0119,E,1.76,144.51,100315,,,D*7D
$GPGGA,042456.000,3158.7488,S,11549.0120,E,2,7,1.07,40.4,M,-29.4,M,0000,0000*57
$GPGSA,A,3,21,29,25,18,12,31,05,,,,,,1.38,1.07,0.86*02
$GPGSV,3,1,09,21,72,287,40,29,46,127,28,25,46,040,34,42,41,046,31*7F
$GPGSV,3,2,09,31,35,289,30,18,23,006,18,05,17,132,25,12,09,042,16*7D
$GPGSV,3,3,09,16,06,221,*40
$GPRMC,042456.000,A,3158.7488,S,11549.0120,E,3.26,141.10,100315,,,D*74
$GPGGA,042456.200,3158.7489,S,11549.0122,E,2,7,1.07,40.3,M,-29.4,M,0000,0000*51
$GPGSA,A,3,21,29,25,18,12,31,05,,,,,,1.38,1.07,0.87*03
$GPGSV,3,1,09,21,72,287,39,29,46,127,27,25,46,040,35,42,41,046,27*78
$GPGSV,3,2,09,31,35,289,30,18,23,006,18,05,17,132,24,12,09,042,16*7C
$GPGSV,3,3,09,16,06,221,*40
$GPRMC,042456.200,A,3158.7489,S,11549.0122,E,2.57,138.81,100315,,,D*74
$GPGGA,042456.400,3158.7489,S,11549.0123,E,2,6,1.28,40.3,M,-29.4,M,0000,0000*5A
$GPGSA,A,3,21,29,25,18,12,31,,,,,,,1.57,1.28,0.92*06
$GPGSV,3,1,09,21,72,287,41,29,46,127,27,25,46,040,35,42,41,046,27*77
$GPGSV,3,2,09,31,35,289,31,18,23,006,18,05,17,132,24,12,09,042,16*7D
$GPGSV,3,3,09,16,06,221,*40
$GPRMC,042456.400,A,3158.7489,S,11549.0123,E,2.57,136.83,100315,,,D*7F
$GPGGA,042456.600,3158.7490,S,11549.0125,E,2,7,1.07,40.2,M,-29.4,M,0000,0000*5B
$GPGSA,A,3,21,29,25,18,12,31,05,,,,,,1.38,1.07,0.87*03
$GPGSV,3,1,09,21,72,287,41,29,46,127,27,25,46,040,33,42,41,046,27*71
$GPGSV,3,2,09,31,35,289,32,18,23,006,18,05,17,132,24,12,09,042,16*7E
$GPGSV,3,3,09,16,06,221,*40
$GPRMC,042456.600,A,3158.7490,S,11549.0125,E,2.63,134.75,100315,,,D*7F
$GPGGA,042456.800,3158.7491,S,11549.0126,E,2,7,1.07,40.2,M,-29.4,M,0000,0000*57
$GPGSA,A,3,21,29,25,18,12,31,05,,,,,,1.38,1.07,0.87*03
$GPGSV,3,1,09,21,72,287,41,29,46,127,27,25,46,040,32,42,41,046,31*77
$GPGSV,3,2,09,31,35,289,32,18,23,006,18,05,17,132,24,12,09,042,16*7E
$GPGSV,3,3,09,16,06,221,*40
$GPRMC,042456.800,A,3158.7491,S,11549.0126,E,2.01,133.07,100315,,,D*75
$GPGGA,042457.000,3158.7491,S,11549.0128,E,2,7,1.07,40.2,M,-29.4,M,0000,0000*50
$GPGSA,A,3,21,29,25,18,12,31,05,,,,,,1.38,1.07,0.87*03
$GPGSV,3,1,09,21,72,287,40,29,46,127,26,25,46,040,33,42,41,046,30*77
$GPGSV,3,2,09,31,35,289,33,18,23,006,18,05,17,132,24,12,09,042,16*7F
$GPGSV,3,3,09,16,06,221,*40
$GPRMC,042457.000,A,3158.7491,S,11549.0128,E,2.69,130.28,100315,,,D*72
$GPGGA,042457.200,3158.7491,S,11549.0129,E,2,7,1.07,40.1,M,-29.4,M,0000,0000*50
$GPGSA,A,3,21,29,25,18,12,31,05,,,,,,1.38,1.07,0.86*02
$GPGSV,3,1,09,21,72,287,40,29,46,127,25,25,46,040,34,42,41,046,29*7B
$GPGSV,3,2,09,31,35,289,34,18,23,006,18,05,17,132,25,12,09,042,16*79
$GPGSV,3,3,09,16,06,221,*40
$GPRMC,042457.200,A,3158.7491,S,11549.0129,E,1.27,128.35,100315,,,D*7D
$GPGGA,042457.400,3158.7491,S,11549.0130,E,2,6,1.16,40.1,M,-29.4,M,0000,0000*5F
$GPGSA,A,3,21,29,25,12,31,05,,,,,,,1.45,1.16,0.87*00
$GPGSV,3,1,09,21,72,287,40,29,46,127,25,25,46,040,36,42,41,046,29*79
$GPGSV,3,2,09,31,35,289,35,18,23,006,18,05,17,132,25,12,09,042,16*78
$GPGSV,3,3,09,16,06,221,*40
$GPRMC,042457.400,A,3158.7491,S,11549.0130,E,1.89,125.40,100315,,,D*78
$GPGGA,042457.600,3158.7491,S,11549.0131,E,2,6,1.16,40.0,M,-29.4,M,0000,0000*5D
$GPGSA,A,3,21,29,25,12,31,05,,,,,,,1.45,1.16,0.87*00
$GPGSV,3,1,09,21,72,287,40,29,46,127,25,25,46,040,38,42,41,046,29*77
$GPGSV,3,2,09,31,35,289,37,18,23,006,18,05,17,132,25,12,09,042,16*7A
$GPGSV,3,3,09,16,06,221,*40
$GPRMC,042457.600,A,3158.7491,S,11549.0131,E,2.47,121.99,100315,,,D*7A
$GPGGA,042457.800,3158.7491,S,11549.0133,E,2,6,1.16,40.0,M,-29.4,M,0000,0000*51
$GPGSA,A,3,21,29,25,12,31,05,,,,,,,1.45,1.16,0.87*00
$GPGSV,3,1,09,21,72,287,39,29,46,127,25,25,46,040,39,42,41,046,29*78
$GPGSV,3,2,09,31,35,289,38,18,23,006,18,05,17,132,24,12,09,042,15*77
$GPGSV,3,3,09,16,06,221,*40
$GPRMC,042457.800,A,3158.7491,S,11549.0133,E,2.44,119.31,100315,,,D*7C
$GPGGA,042458.000,3158.7491,S,11549.0135,E,2,7,1.07,39.9,M,-29.4,M,0000,0000*56
$GPGSA,A,3,21,29,25,18,12,31,05,,,,,,1.38,1.07,0.86*02
$GPGSV,3,1,09,21,72,287,39,29,46,127,25,25,46,040,38,42,41,046,29*79
$GPGSV,3,2,09,31,35,289,38,18,23,006,18,05,17,132,23,12,09,042,15*70
$GPGSV,3,3,09,16,06,221,*40
$GPRMC,042458.000,A,3158.7491,S,11549.0135,E,2.65,116.65,100315,,,D*70
$GPGGA,042458.200,3158.7491,S,11549.0136,E,2,7,1.07,39.9,M,-29.4,M,0000,0000*57
$GPGSA,A,3,21,29,25,18,12,31,05,,,,,,1.38,1.07,0.87*03
$GPGSV,3,1,09,21,72,287,40,29,46,127,26,25,46,040,37,42,41,046,29*7B
$GPGSV,3,2,09,31,35,289,39,18,23,006,18,05,17,132,23,12,09,042,15*71
$GPGSV,3,3,09,16,06,221,*40
$GPRMC,042458.200,A,3158.7491,S,11549.0136,E,2.46,114.42,100315,,,D*77
$GPGGA,042458.400,3158.7491,S,11549.0138,E,2,6,1.28,39.9,M,-29.4,M,0000,0000*53
$GPGSA,A,3,21,29,25,18,12,31,,,,,,,1.57,1.28,0.92*06
$GPGSV,3,1,09,21,72,287,41,29,46,127,27,25,46,040,36,42,41,046,29*7A
$GPGSV,3,2,09,31,35,289,41,18,23,006,18,05,17,132,23,12,09,042,15*7E
$GPGSV,3,3,09,16,06,221,*40
$GPRMC,042458.400,A,3158.7491,S,11549.0138,E,2.51,112.55,100315,,,D*79
$GPGGA,042458.600,3158.7491,S,11549.0140,E,2,6,1.28,39.8,M,-29.4,M,0000,0000*5F
$GPGSA,A,3,21,29,25,18,12,31,,,,,,,1.57,1.28,0.92*06
$GPGSV,3,1,09,21,72,287,42,29,46,127,26,25,46,040,35,42,41,046,29*7B
$GPGSV,3,2,09,31,35,289,42,18,23,006,18,05,17,132,23,12,09,042,15*7D
$GPGSV,3,3,09,16,06,221,*40
$GPRMC,042458.600,A,3158.7491,S,11549.0140,E,2.45,111.01,100315,,,D*73
$GPGGA,042458.800,3158.7491,S,11549.0141,E,2,6,1.16,39.8,M,-29.4,M,0000,0000*5D
$GPGSA,A,3,21,29,25,12,31,05,,,,,,,1.45,1.16,0.87*00
$GPGSV,3,1,09,21,72,287,42,29,46,127,25,25,46,040,37,42,41,046,29*7A
$GPGSV,3,2,09,31,35,289,41,18,23,006,18,05,17,132,24,12,09,042,15*79
$GPGSV,3,3,09,16,06,221,*40
$GPRMC,042458.800,A,3158.7491,S,11549.0141,E,2.20,109.89,100315,,,D*76
$GPGGA,042459.000,3158.7491,S,11549.0143,E,2,6,1.16,39.8,M,-29.4,M,0000,0000*56
$GPGSA,A,3,21,29,25,12,31,05,,,,,,,1.45,1.16,0.87*00
$GPGSV,3,1,09,21,72,287,42,29,46,127,25,25,46,040,38,42,41,046,29*75
$GPGSV,3,2,09,31,35,289,40,18,23,006,18,05,17,132,24,12,09,042,16*7B
$GPGSV,3,3,09,16,06,221,*40
$GPRMC,042459.000,A,3158.7491,S,11549.0143,E,3.76,109.12,100315,,,D*7D
$GPGGA,042459.200,3158.7491,S,11549.0145,E,2,6,1.16,39.7,M,-29.4,M,0000,0000*5D
$GPGSA,A,3,21,29,25,12,31,05,,,,,,,1.45,1.16,0.87*00
$GPGSV,3,1,09,21,72,287,41,29,46,127,25,25,46,040,38,42,41,046,36*78
$GPGSV,3,2,09,31,35,289,39,18,23,006,18,05,17,132,24,12,09,042,16*75
$GPGSV,3,3,09,16,06,221,*40
$GPRMC,042459.200,A,3158.7491,S,11549.0145,E,2.05,109.07,100315,,,D*78
$GPGGA,042459.400,3158.7492,S,11549.0146,E,2,6,1.16,39.7,M,-29.4,M,0000,0000*5B
$GPGSA,A,3,21,29,25,12,31,05,,,,,,,1.45,1.16,0.87*00
$GPGSV,3,1,09,21,72,287,40,29,46,127,25,25,46,040,38,42,41,046,36*79
$GPGSV,3,2,09,31,35,289,39,18,23,006,18,05,17,132,24,12,09,042,16*75
$GPGSV,3,3,09,16,06,221,*40
$GPRMC,042459.400,A,3158.7492,S,11549.0146,E,1.04,108.56,100315,,,D*79
$GPGGA,042459.600,3158.7492,S,11549.0147,E,2,6,1.16,39.7,M,-29.4,M,0000,0000*58
$GPGSA,A,3,21,29,25,12,31,05,,,,,,,1.45,1.16,0.87*00
$GPGSV,3,1,09,21,72,287,40,29,46,127,25,25,46,040,38,42,41,046,36*79
$GPGSV,3,2,09,31,35,289,41,18,23,006,18,05,17,132,24,12,09,042,16*7A
$GPGSV,3,3,09,16,06,221,*40
$GPRMC,042459.600,A,3158.7492,S,11549.0147,E,1.85,107.27,100315,,,D*7A
$GPGGA,042459.800,3158.7492,S,11549.0148,E,2,7,1.07,39.6,M,-29.4,M,0000,0000*59
$GPGSA,A,3,21,29,25,18,12,31,05,,,,,,1.38,1.07,0.86*02
$GPGSV,3,1,09,21,72,287,40,29,46,127,25,25,46,040,36,42,41,046,35*74
$GPGSV,3,2,09,31,35,289,42,18,23,006,18,05,17,132,24,12,09,042,16*79
$GPGSV,3,3,09,16,06,221,*40
$GPRMC,042459.800,A,3158.7492,S,11549.0148,E,2.32,107.10,100315,,,D*70
$GPGGA,042500.000,3158.7492,S,11549.0150,E,2,6,1.16,39.6,M,-29.4,M,0000,0000*54
$GPGSA,A,3,21,29,25,12,31,05,,,,,,,1.45,1.16,0.87*00
$GPGSV,3,1,09,21,72,287,40,29,46,127,25,25,46,040,37,42,41,046,35*75
$GPGSV,3,2,09,31,35,289,41,18,23,006,18,05,17,132,24,12,09,042,16*7A
$GPGSV,3,3,09,16,06,221,*40
$GPRMC,042500.000,A,3158.7492,S,11549.0150,E,2.92,107.77,100315,,,D*77
$GPGGA,042500.200,3158.7493,S,11549.0151,E,2,5,1.55,39.6,M,-29.4,M,0000,0000*52
$GPGSA,A,3,21,29,25,31,05,,,,,,,,1.80,1.55,0.92*09
$GPGSV,3,1,09,21,72,287,25,29,46,127,25,25,46,040,38,42,41,046,36*7A
$GPGSV,3,2,09,31,35,289,40,18,23,006,18,05,17,132,24,12,09,042,*7C
$GPGSV,3,3,09,16,06,221,*40
$GPRMC,042500.200,A,3158.7493,S,11549.0151,E,2.40,108.62,100315,,,D*71
$GPGGA,042500.400,3158.7493,S,11549.0153,E,2,6,1.21,39.6,M,-29.4,M,0000,0000*56
$GPGSA,A,3,21,29,25,18,31,05,,,,,,,1.50,1.21,0.89*04
$GPGSV,3,1,09,21,72,287,25,29,46,127,24,25,46,040,39,42,41,046,37*7B
$GPGSV,3,2,09,31,35,289,40,18,23,006,18,05,17,132,22,12,09,042,*7A
$GPGSV,3,3,09,16,06,221,*40
$GPRMC,042500.400,A,3158.7493,S,11549.0153,E,1.77,109.97,100315,,,D*79
$GPGGA,042500.600,3158.7494,S,11549.0154,E,2,6,1.21,39.6,M,-29.4,M,0000,0000*54
$GPGSA,A,3,21,29,25,18,31,05,,,,,,,1.50,1.21,0.89*04
$GPGSV,3,1,09,21,72,287,25,29,46,127,23,25,46,040,40,42,41,046,37*72
$GPGSV,3,2,09,31,35,289,28,18,23,006,18,05,17,132,21,12,09,042,*77
$GPGSV,3,3,09,16,06,221,*40
$GPRMC,042500.600,A,3158.7494,S,11549.0154,E,2.25,111.19,100315,,,D*70
$GPGGA,042500.800,3158.7495,S,11549.0155,E,2,5,1.55,39.6,M,-29.4,M,0000,0000*5A
$GPGSA,A,3,21,29,25,31,05,,,,,,,,1.80,1.55,0.92*09
$GPGSV,3,1,09,21,72,287,18,29,46,127,22,25,46,040,41,42,41,046,*78
$GPGSV,3,2,09,31,35,289,28,18,23,006,18,05,17,132,20,12,09,042,*76
$GPGSV,3,3,09,16,06,221,*40
$GPRMC,042500.800,A,3158.7495,S,11549.0155,E,2.22,112.29,100315,,,D*79
$GPGGA,042501.000,3158.7496,S,11549.0156,E,2,5,1.55,39.5,M,-29.4,M,0000,0000*50
$GPGSA,A,3,21,29,25,31,05,,,,,,,,1.80,1.55,0.92*09
$GPGSV,3,1,09,21,72,287,18,29,46,127,22,25,46,040,41,42,41,046,*78
$GPGSV,3,2,09,31,35,289,28,18,23,006,18,05,17,132,20,12,09,042,*76
$GPGSV,3,3,09,16,06,221,*40
$GPRMC,042501.000,A,3158.7496,S,11549.0156,E,2.16,113.38,100315,,,D*76
$GPGGA,042501.200,3158.7496,S,11549.0157,E,2,6,1.21,39.5,M,-29.4,M,0000,0000*53
$GPGSA,A,3,21,29,25,18,31,05,,,,,,,1.50,1.21,0.89*04
$GPGSV,3,1,09,21,72,287,18,29,46,127,24,25,46,040,31,42,41,046,28*73
$GPGSV,3,2,09,31,35,289,28,18,23,006,18,05,17,132,20,12,09,042,*76
$GPGSV,3,3,09,16,06,221,*40
$GPRMC,042501.200,A,3158.7496,S,11549.0157,E,1.96,114.27,100315,,,D*77
$GPGGA,042501.400,3158.7497,S,11549.0158,E,2,6,1.21,39.5,M,-29.4,M,0000,0000*5B
$GPGSA,A,3,21,29,25,18,31,05,,,,,,,1.50,1.21,0.89*04
$GPGSV,3,1,09,21,72,287,18,29,46,127,25,25,46,040,31,42,41,046,28*72
$GPGSV,3,2,09,31,35,289,27,18,23,006,18,05,17,132,20,12,09,042,*79
$GPGSV,3,3,09,16,06,221,*40
$GPRMC,042501.400,A,3158.7497,S,11549.0158,E,1.92,115.05,100315,,,D*7A
$GPGGA,042501.600,3158.7498,S,11549.0159,E,2,6,1.21,39.5,M,-29.4,M,0000,0000*57
$GPGSA,A,3,21,29,25,18,31,05,,,,,,,1.51,1.21,0.89*05
$GPGSV,3,1,09,21,72,287,18,29,46,127,26,25,46,040,30,42,41,046,28*70
$GPGSV,3,2,09,31,35,289,27,18,23,006,18,05,17,132,20,12,09,042,*79
$GPGSV,3,3,09,16,06,221,*40
$GPRMC,042501.600,A,3158.7498,S,11549.0159,E,1.86,115.83,100315,,,D*7D
$GPGGA,042501.800,3158.7498,S,11549.0160,E,2,6,1.21,39.5,M,-29.4,M,0000,0000*53
$GPGSA,A,3,21,29,25,18,31,05,,,,,,,1.50,1.21,0.89*04
$GPGSV,3,1,09,21,72,287,18,29,46,127,26,25,46,040,30,42,41,046,27*7F
$GPGSV,3,2,09,31,35,289,27,18,23,006,18,05,17,132,19,12,09,042,*73
$GPGSV,3,3,09,16,06,221,*40
$GPRMC,042501.800,A,3158.7498,S,11549.0160,E,1.85,116.74,100315,,,D*71
$GPGGA,042502.000,3158.7499,S,11549.0160,E,2,6,1.21,39.5,M,-29.4,M,0000,0000*59
$GPGSA,A,3,21,29,25,18,31,05,,,,,,,1.51,1.21,0.89*05
$GPGSV,3,1,09,21,72,287,18,29,46,127,26,25,46,040,30,42,41,046,27*7F
$GPGSV,3,2,09,31,35,289,27,18,23,006,18,05,17,132,18,12,09,042,*72
$GPGSV,3,3,09,16,06,221,*40
$GPRMC,042502.000,A,3158.7499,S,11549.0160,E,1.93,117.80,100315,,,D*76
$GPGGA,042502.200,3158.7500,S,11549.0161,E,2,6,1.21,39.5,M,-29.4,M,0000,0000*5B
$GPGSA,A,3,21,29,25,18,31,05,,,,,,,1.51,1.21,0.89*05
$GPGSV,3,1,09,21,72,287,18,29,46,127,26,25,46,040,30,42,41,046,27*7F
$GPGSV,3,2,09,31,35,289,27,18,23,006,18,05,17,132,18,12,09,042,*72
$GPGSV,3,3,09,16,06,221,*40
$GPRMC,042502.200,A,3158.7500,S,11549.0161,E,2.17,118.99,100315,,,D*7C
$GPGGA,042502.400,3158.7501,S,11549.0162,E,2,6,1.21,39.4,M,-29.4,M,0000,0000*5E
$GPGSA,A,3,21,29,25,18,31,05,,,,,,,1.50,1.21,0.89*04
$GPGSV,3,1,09,21,72,287,18,29,46,127,26,25,46,040,29,42,41,046,27*77
$GPGSV,3,2,09,31,35,289,27,18,23,006,18,05,17,132,18,12,09,042,*72
$GPGSV,3,3,09,16,06,221,*40
$GPRMC,042502.400,A,3158.7501,S,11549.0162,E,2.35,120.38,100315,,,D*78
$GPGGA,042502.600,3158.7502,S,11549.0163,E,2,6,1.21,39.4,M,-29.4,M,0000,0000*5E
$GPGSA,A,3,21,29,25,18,31,05,,,,,,,1.50,1.21,0.89*04
$GPGSV,3,1,09,21,72,287,18,29,46,127,26,25,46,040,28,42,41,046,27*76
$GPGSV,3,2,09,31,35,289,28,18,23,006,18,05,17,132,18,12,09,042,*7D
$GPGSV,3,3,09,16,06,221,*40
$GPRMC,042502.600,A,3158.7502,S,11549.0163,E,2.52,121.91,100315,,,D*7B
$GPGGA,042502.800,3158.7503,S,11549.0164,E,2,6,1.21,39.4,M,-29.4,M,0000,0000*56
$GPGSA,A,3,21,29,25,18,31,05,,,,,,,1.50,1.21,0.89*04
$GPGSV,3,1,09,21,72,287,17,29,46,127,26,25,46,040,28,42,41,046,23*7D
$GPGSV,3,2,09,31,35,289,28,18,23,006,18,05,17,132,18,12,09,042,*7D
$GPGSV,3,3,09,16,06,221,*40
$GPRMC,042502.800,A,3158.7503,S,11549.0164,E,2.69,123.61,100315,,,D*76
$GPGGA,042503.000,3158.7504,S,11549.0165,E,2,6,1.21,39.4,M,-29.4,M,0000,0000*59
$GPGSA,A,3,21,29,25,18,31,05,,,,,,,1.50,1.21,0.89*04
$GPGSV,3,1,09,21,72,287,16,29,46,127,26,25,46,040,28,42,41,046,23*7C
$GPGSV,3,2,09,31,35,289,28,18,23,006,19,05,17,132,18,12,09,042,*7C
$GPGSV,3,3,09,16,06,221,*40
$GPRMC,042503.000,A,3158.7504,S,11549.0165,E,2.87,149.81,100315,,,D*7B
$GPGGA,042503.200,3158.7506,S,11549.0166,E,2,6,1.21,39.4,M,-29.4,M,0000,0000*5A
$GPGSA,A,3,21,29,25,18,31,05,,,,,,,1.50,1.21,0.89*04
$GPGSV,3,1,09,21,72,287,16,29,46,127,26,25,46,040,28,42,41,046,23*7C
$GPGSV,3,2,09,31,35,289,28,18,23,006,19,05,17,132,18,12,09,042,*7C
$GPGSV,3,3,09,16,06,221,*40
$GPRMC,042503.200,A,3158.7506,S,11549.0166,E,2.88,155.40,100315,,,D*77
$GPGGA,042503.400,3158.7507,S,11549.0167,E,2,6,1.21,39.4,M,-29.4,M,0000,0000*5C
$GPGSA,A,3,21,29,25,18,31,05,,,,,,,1.50,1.21,0.89*04
$GPGSV,3,1,09,21,72,287,16,29,46,127,26,25,46,040,27,42,41,046,23*73
$GPGSV,3,2,09,31,35,289,28,18,23,006,19,05,17,132,18,12,09,042,*7C
$GPGSV,3,3,09,16,06,221,*40
$GPRMC,042503.400,A,3158.7507,S,11549.0167,E,3.05,159.87,100315,,,D*72
$GPGGA,042503.600,3158.7509,S,11549.0168,E,2,6,1.21,39.4,M,-29.4,M,0000,0000*5F
$GPGSA,A,3,21,29,25,18,31,05,,,,,,,1.50,1.21,0.89*04
$GPGSV,3,1,09,21,72,287,16,29,46,127,26,25,46,040,26,42,41,046,23*72
$GPGSV,3,2,09,31,35,289,17,18,23,006,19,05,17,132,18,12,09,042,*70
$GPGSV,3,3,09,16,06,221,*40
$GPRMC,042503.600,A,3158.7509,S,11549.0168,E,3.11,163.42,100315,,,D*74
$GPGGA,042503.800,3158.7510,S,11549.0168,E,2,6,1.21,39.4,M,-29.4,M,0000,0000*59
$GPGSA,A,3,21,29,25,18,31,05,,,,,,,1.50,1.21,0.89*04
$GPGSV,3,1,09,21,72,287,16,29,46,127,25,25,46,040,26,42,41,046,23*71
$GPGSV,3,2,09,31,35,289,17,18,23,006,19,05,17,132,18,12,09,042,*70
$GPGSV,3,3,09,16,06,221,*40
$GPRMC,042503.800,A,3158.7510,S,11549.0168,E,3.15,166.48,100315,,,D*79
$GPGGA,042504.000,3158.7512,S,11549.0169,E,2,6,1.21,39.3,M,-29.4,M,0000,0000*52
$GPGSA,A,3,21,29,25,18,31,05,,,,,,,1.50,1.21,0.89*04
$GPGSV,3,1,09,21,72,287,16,29,46,127,25,25,46,040,26,42,41,046,23*71
$GPGSV,3,2,09,31,35,289,17,18,23,006,19,05,17,132,18,12,09,042,*70
$GPGSV,3,3,09,16,06,221,*40
$GPRMC,042504.000,A,3158.7512,S,11549.0169,E,3.18,167.91,100315,,,D*7D
$GPGGA,042504.200,3158.7514,S,11549.0169,E,2,5,1.55,39.3,M,-29.4,M,0000,0000*56
$GPGSA,A,3,21,29,25,31,05,,,,,,,,1.80,1.55,0.92*09
$GPGSV,3,1,09,21,72,287,15,29,46,127,25,25,46,040,26,42,41,046,23*72
$GPGSV,3,2,09,31,35,289,17,18,23,006,,05,17,132,18,12,09,042,*78
$GPGSV,3,3,09,16,06,221,*40
$GPRMC,042504.200,A,3158.7514,S,11549.0169,E,2.98,168.93,100315,,,D*7D
$GPGGA,042504.400,3158.7515,S,11549.0169,E,2,5,1.55,39.3,M,-29.4,M,0000,0000*51
$GPGSA,A,3,21,29,25,31,05,,,,,,,,1.80,1.55,0.92*09
$GPGSV,3,1,09,21,72,287,14,29,46,127,25,25,46,040,18,42,41,046,23*7E
$GPGSV,3,2,09,31,35,289,17,18,23,006,,05,17,132,19,12,09,042,*79
$GPGSV,3,3,09,16,06,221,*40
$GPRMC,042504.400,A,3158.7515,S,11549.0169,E,2.92,168.89,100315,,,D*7B
$GPGGA,042504.600,3158.7517,S,11549.0170,E,2,5,1.55,39.3,M,-29.4,M,0000,0000*59
$GPGSA,A,3,21,29,25,31,05,,,,,,,,1.80,1.55,0.92*09
$GPGSV,3,1,09,21,72,287,14,29,46,127,23,25,46,040,18,42,41,046,23*78
$GPGSV,3,2,09,31,35,289,17,18,23,006,,05,17,132,19,12,09,042,*79
$GPGSV,3,3,09,16,06,221,*40
$GPRMC,042504.600,A,3158.7517,S,11549.0170,E,2.70,168.18,100315,,,D*77
$GPGGA,042504.800,3158.7519,S,11549.0170,E,2,5,1.55,39.3,M,-29.4,M,0000,0000*59
$GPGSA,A,3,21,29,25,31,05,,,,,,,,1.80,1.55,0.92*09
$GPGSV,3,1,09,21,72,287,14,29,46,127,22,25,46,040,18,42,41,046,23*79
$GPGSV,3,2,09,31,35,289,16,18,23,006,,05,17,132,19,12,09,042,*78
$GPGSV,3,3,09,16,06,221,*40
$GPRMC,042504.800,A,3158.7519,S,11549.0170,E,2.54,167.79,100315,,,D*79
$GPGGA,042505.000,3158.7520,S,11549.0171,E,2,5,1.55,39.3,M,-29.4,M,0000,0000*5B
$GPGSA,A,3,21,29,25,31,05,,,,,,,,1.80,1.55,0.92*09
$GPGSV,3,1,09,21,72,287,14,29,46,127,21,25,46,040,18,42,41,046,23*7A
$GPGSV,3,2,09,31,35,289,15,18,23,006,,05,17,132,20,12,09,042,*71
$GPGSV,3,3,09,16,06,221,*40
$GPRMC,042505.000,A,3158.7520,S,11549.0171,E,2.34,167.95,100315,,,D*7F
$GPGGA,042505.200,3158.7521,S,11549.0171,E,2,5,1.55,39.3,M,-29.4,M,0000,0000*58
$GPGSA,A,3,21,29,25,31,05,,,,,,,,1.80,1.55,0.92*09
$GPGSV,3,1,09,21,72,287,14,29,46,127,20,25,46,040,18,42,41,046,23*7B
$GPGSV,3,2,09,31,35,289,15,18,23,006,,05,17,132,21,12,09,042,*70
$GPGSV,3,3,09,16,06,221,*40
$GPRMC,042505.200,A,3158.7521,S,11549.0171,E,2.19,165.99,100315,,,D*7D
$GPGGA,042505.400,3158.7522,S,11549.0171,E,2,4,1.60,39.2,M,-29.4,M,0000,0000*5B
$GPGSA,A,3,29,25,31,05,,,,,,,,,1.87,1.60,0.96*0F
$GPGSV,3,1,09,21,72,287,,29,46,127,19,25,46,040,18,42,41,046,23*74
$GPGSV,3,2,09,31,35,289,15,18,23,006,,05,17,132,21,12,09,042,*70
$GPGSV,3,3,09,16,06,221,*40
$GPRMC,042505.400,A,3158.7522,S,11549.0171,E,2.13,165.01,100315,,,D*73
$GPGGA,042505.600,3158.7523,S,11549.0172,E,2,4,1.60,39.2,M,-29.4,M,0000,0000*5B
$GPGSA,A,3,29,25,31,05,,,,,,,,,1.87,1.60,0.96*0F
$GPGSV,3,1,09,21,72,287,,29,46,127,18,25,46,040,17,42,41,046,23*7A
$GPGSV,3,2,09,31,35,289,15,18,23,006,,05,17,132,21,12,09,042,*70
$GPGSV,3,3,09,16,06,221,*40
$GPRMC,042505.600,A,3158.7523,S,11549.0172,E,1.94,163.06,100315,,,D*7E
$GPGGA,042505.800,3158.7525,S,11549.0172,E,2,4,1.60,39.2,M,-29.4,M,0000,0000*53
$GPGSA,A,3,29,25,31,05,,,,,,,,,1.86,1.60,0.96*0E
$GPGSV,3,1,09,21,72,287,,29,46,127,18,25,46,040,16,42,41,046,23*7B
$GPGSV,3,2,09,31,35,289,15,18,23,006,,05,17,132,21,12,09,042,*70
$GPGSV,3,3,09,16,06,221,*40
$GPRMC,042505.800,A,3158.7525,S,11549.0172,E,1.89,163.70,100315,,,D*7B
$GPGGA,042506.000,3158.7525,S,11549.0172,E,2,4,1.60,39.2,M,-29.4,M,0000,0000*58
$GPGSA,A,3,29,25,31,05,,,,,,,,,1.86,1.60,0.96*0E
$GPGSV,3,1,09,21,72,287,,29,46,127,18,25,46,040,16,42,41,046,23*7B
$GPGSV,3,2,09,31,35,289,15,18,23,006,,05,17,132,21,12,09,042,*70
$GPGSV,3,3,09,16,06,221,*40
$GPRMC,042506.000,A,3158.7525,S,11549.0172,E,1.84,164.49,100315,,,D*70
$GPGGA,042506.200,3158.7526,S,11549.0173,E,2,4,1.60,39.2,M,-29.4,M,0000,0000*58
$GPGSA,A,3,29,25,31,05,,,,,,,,,1.86,1.60,0.96*0E
$GPGSV,3,1,09,21,72,287,,29,46,127,18,25,46,040,16,42,41,046,23*7B
$GPGSV,3,2,09,31,35,289,15,18,23,006,,05,17,132,21,12,09,042,*70
$GPGSV,3,3,09,16,06,221,*40
$GPRMC,042506.200,A,3158.7526,S,11549.0173,E,1.82,162.86,100315,,,D*73
$GPGGA,042506.400,3158.7527,S,11549.0173,E,2,4,1.60,39.2,M,-29.4,M,0000,0000*5F
$GPGSA,A,3,29,25,31,05,,,,,,,,,1.86,1.60,0.96*0E
$GPGSV,3,1,09,21,72,287,,29,46,127,18,25,46,040,16,42,41,046,23*7B
$GPGSV,3,2,09,31,35,289,15,18,23,006,,05,17,132,21,12,09,042,*70
$GPGSV,3,3,09,16,06,221,*40
$GPRMC,042506.400,A,3158.7527,S,11549.0173,E,1.87,159.85,100315,,,D*7A
$GPGGA,042506.600,3158.7528,S,11549.0173,E,2,5,1.55,39.2,M,-29.4,M,0000,0000*55
$GPGSA,A,3,21,29,25,31,05,,,,,,,,1.80,1.55,0.92*09
$GPGSV,3,1,09,21,72,287,15,29,46,127,18,25,46,040,16,42,41,046,23*7F
$GPGSV,3,2,09,31,35,289,15,18,23,006,,05,17,132,21,12,09,042,*70
$GPGSV,3,3,09,16,06,221,*40
$GPRMC,042506.600,A,3158.7528,S,11549.0173,E,1.94,155.16,100315,,,D*73
$GPGGA,042506.800,3158.7529,S,11549.0174,E,2,5,1.55,39.2,M,-29.4,M,0000,0000*5D
$GPGSA,A,3,21,29,25,31,05,,,,,,,,1.80,1.55,0.92*09
$GPGSV,3,1,09,21,72,287,15,29,46,127,18,25,46,040,16,42,41,046,*7E
$GPGSV,3,2,09,31,35,289,15,18,23,006,,05,17,132,30,12,09,042,*70
$GPGSV,3,3,09,16,06,221,*40
$GPRMC,042506.800,A,3158.7529,S,11549.0174,E,2.48,149.84,100315,,,D*7F
$GPGGA,042507.000,3158.7531,S,11549.0175,E,2,5,1.55,39.1,M,-29.4,M,0000,0000*5F
$GPGSA,A,3,21,29,25,31,05,,,,,,,,1.80,1.55,0.92*09
$GPGSV,3,1,09,21,72,287,15,29,46,127,18,25,46,040,16,42,41,046,*7E
$GPGSV,3,2,09,31,35,289,15,18,23,006,,05,17,132,30,12,09,042,*70
$GPGSV,3,3,09,16,06,221,*40
$GPRMC,042507.000,A,3158.7531,S,11549.0175,E,2.77,147.60,100315,,,D*76
$GPGGA,042507.200,3158.7532,S,11549.0176,E,2,5,1.55,39.1,M,-29.4,M,0000,0000*5D
$GPGSA,A,3,21,29,25,31,05,,,,,,,,1.80,1.55,0.92*09
$GPGSV,3,1,09,21,72,287,15,29,46,127,18,25,46,040,16,42,41,046,*7E
$GPGSV,3,2,09,31,35,289,15,18,23,006,,05,17,132,30,12,09,042,*70
$GPGSV,3,3,09,16,06,221,*40
$GPRMC,042507.200,A,3158.7532,S,11549.0176,E,2.79,147.35,100315,,,D*7A
$GPGGA,042507.400,3158.7533,S,11549.0177,E,2,5,1.55,39.1,M,-29.4,M,0000,0000*5B
$GPGSA,A,3,21,29,25,31,05,,,,,,,,1.80,1.55,0.92*09
$GPGSV,3,1,09,21,72,287,15,29,46,127,18,25,46,040,16,42,41,046,*7E
$GPGSV,3,2,09,31,35,289,15,18,23,006,,05,17,132,29,12,09,042,*78
$GPGSV,3,3,09,16,06,221,*40
$GPRMC,042507.400,A,3158.7533,S,11549.0177,E,2.84,147.01,100315,,,D*79
$GPGGA,042507.600,3158.7535,S,11549.0178,E,2,5,1.55,39.1,M,-29.4,M,0000,0000*50
$GPGSA,A,3,21,29,25,31,05,,,,,,,,1.80,1.55,0.92*09
$GPGSV,3,1,09,21,72,287,15,29,46,127,18,25,46,040,16,42,41,046,*7E
$GPGSV,3,2,09,31,35,289,15,18,23,006,,05,17,132,28,12,09,042,*79
$GPGSV,3,3,09,16,06,221,*40
$GPRMC,042507.600,A,3158.7535,S,11549.0178,E,2.88,148.29,100315,,,D*7B
$GPGGA,042507.800,3158.7536,S,11549.0179,E,2,5,1.55,39.1,M,-29.4,M,0000,0000*5C
$GPGSA,A,3,21,29,25,31,05,,,,,,,,1.80,1.55,0.92*09
$GPGSV,3,1,09,21,72,287,15,29,46,127,18,25,46,040,16,42,41,046,*7E
$GPGSV,3,2,09,31,35,289,15,18,23,006,,05,17,132,28,12,09,042,*79
$GPGSV,3,3,09,16,06,221,*40
$GPRMC,042507.800,A,3158.7536,S,11549.0179,E,2.89,149.95,100315,,,D*70
$GPGGA,042508.000,3158.7537,S,11549.0180,E,2,4,1.60,39.1,M,-29.4,M,0000,0000*5B
$GPGSA,A,3,29,25,31,05,,,,,,,,,1.86,1.60,0.96*0E
$GPGSV,3,1,09,21,72,287,,29,46,127,18,25,46,040,16,42,41,046,*7A
$GPGSV,3,2,09,31,35,289,15,18,23,006,,05,17,132,29,12,09,042,*78
$GPGSV,3,3,09,16,06,221,*40
$GPRMC,042508.000,A,3158.7537,S,11549.0180,E,2.90,153.08,100315,,,D*77
$GPGGA,042508.200,3158.7539,S,11549.0181,E,2,4,1.60,39.1,M,-29.4,M,0000,0000*56
$GPGSA,A,3,29,25,31,05,,,,,,,,,1.87,1.60,0.96*0F
$GPGSV,3,1,09,21,72,287,,29,46,127,18,25,46,040,17,42,41,046,*7B
$GPGSV,3,2,09,31,35,289,15,18,23,006,,05,17,132,30,12,09,042,*70
$GPGSV,3,3,09,16,06,221,*40
$GPRMC,042508.200,A,3158.7539,S,11549.0181,E,2.95,153.63,100315,,,D*72
$GPGGA,042508.400,3158.7540,S,11549.0181,E,2,4,1.60,39.1,M,-29.4,M,0000,0000*5E
$GPGSA,A,3,29,25,31,05,,,,,,,,,1.87,1.60,0.96*0F
$GPGSV,3,1,09,21,72,287,,29,46,127,18,25,46,040,18,42,41,046,*74
$GPGSV,3,2,09,31,35,289,15,18,23,006,,05,17,132,32,12,09,042,*72
$GPGSV,3,3,09,16,06,221,*40
$GPRMC,042508.400,A,3158.7540,S,11549.0181,E,3.21,156.35,100315,,,D*72
$GPGGA,042508.600,3158.7542,S,11549.0182,E,2,4,1.60,39.0,M,-29.4,M,0000,0000*5C
$GPGSA,A,3,29,25,31,05,,,,,,,,,1.86,1.60,0.96*0E
$GPGSV,3,1,09,21,72,287,,29,46,127,18,25,46,040,18,42,41,046,*74
$GPGSV,3,2,09,31,35,289,15,18,23,006,,05,17,132,42,12,09,042,*75
$GPGSV,3,3,09,16,06,221,*40
$GPRMC,042508.600,A,3158.7542,S,11549.0182,E,3.01,161.10,100315,,,D*70
$GPGGA,042508.800,3158.7544,S,11549.0183,E,2,4,1.60,39.0,M,-29.4,M,0000,0000*55
$GPGSA,A,3,29,25,31,05,,,,,,,,,1.86,1.60,0.96*0E
$GPGSV,3,1,09,21,72,287,,29,46,127,18,25,46,040,18,42,41,046,*74
$GPGSV,3,2,09,31,35,289,15,18,23,006,,05,17,132,42,12,09,042,*75
$GPGSV,3,3,09,16,06,221,*40
$GPRMC,042508.800,A,3158.7544,S,11549.0183,E,3.02,163.07,100315,,,D*7E
$GPGGA,042509.000,3158.7555,S,11549.0191,E,2,4,1.60,39.0,M,-29.4,M,0000,0000*5F
$GPGSA,A,3,29,25,31,05,,,,,,,,,1.87,1.60,0.96*0F
$GPGSV,3,1,09,21,72,287,,29,46,127,33,25,46,040,18,42,41,046,*7D
$GPGSV,3,2,09,31,35,289,15,18,23,006,,05,17,132,42,12,09,042,*75
$GPGSV,3,3,09,16,06,221,*40
$GPRMC,042509.000,A,3158.7555,S,11549.0191,E,3.06,163.09,100315,,,D*7E
$GPGGA,042509.200,3158.7564,S,11549.0198,E,2,4,1.60,38.9,M,-29.4,M,0000,0000*5E
$GPGSA,A,3,29,25,31,05,,,,,,,,,1.87,1.60,0.96*0F
$GPGSV,3,1,09,21,72,287,,29,46,127,33,25,46,040,18,42,41,046,*7D
$GPGSV,3,2,09,31,35,289,15,18,23,006,,05,17,132,41,12,09,042,*76
$GPGSV,3,3,09,16,06,221,*40
$GPRMC,042509.200,A,3158.7564,S,11549.0198,E,3.13,162.18,100315,,,D*72
$GPGGA,042509.400,3158.7571,S,11549.0205,E,2,4,1.60,38.9,M,-29.4,M,0000,0000*5B
$GPGSA,A,3,29,25,31,05,,,,,,,,,1.87,1.60,0.96*0F
$GPGSV,3,1,09,21,72,287,,29,46,127,34,25,46,040,27,42,41,046,*76
$GPGSV,3,2,09,31,35,289,15,18,23,006,,05,17,132,41,12,09,042,*76
$GPGSV,3,3,09,16,06,221,*40
$GPRMC,042509.400,A,3158.7571,S,11549.0205,E,2.60,164.05,100315,,,D*78
$GPGGA,042509.600,3158.7587,S,11549.0217,E,2,4,1.60,38.8,M,-29.4,M,0000,0000*52
$GPGSA,A,3,29,25,31,05,,,,,,,,,1.86,1.60,0.96*0E
$GPGSV,3,1,09,21,72,287,,29,46,127,35,25,46,040,27,42,41,046,*77
$GPGSV,3,2,09,31,35,289,15,18,23,006,,05,17,132,41,12,09,042,*76
$GPGSV,3,3,09,16,06,221,*40
$GPRMC,042509.600,A,3158.7587,S,11549.0217,E,2.63,164.24,100315,,,D*70
$GPGGA,042509.800,3158.7597,S,11549.0224,E,2,4,1.60,38.8,M,-29.4,M,0000,0000*5D
$GPGSA,A,3,29,25,31,05,,,,,,,,,1.87,1.60,0.96*0F
$GPGSV,3,1,09,21,72,287,,29,46,127,36,25,46,040,27,42,41,046,*74
$GPGSV,3,2,09,31,35,289,15,18,23,006,,05,17,132,39,12,09,042,*79
$GPGSV,3,3,09,16,06,221,*40
$GPRMC,042509.800,A,3158.7597,S,11549.0224,E,2.86,162.62,100315,,,D*70
$GPGGA,042510.000,3158.7604,S,11549.0230,E,2,4,1.60,38.7,M,-29.4,M,0000,0000*5E
$GPGSA,A,3,29,25,31,05,,,,,,,,,1.87,1.60,0.96*0F
$GPGSV,3,1,09,21,72,287,,29,46,127,36,25,46,040,27,42,41,046,25*73
$GPGSV,3,2,09,31,35,289,16,18,23,006,,05,17,132,38,12,09,042,*7B
$GPGSV,3,3,09,16,06,221,*40
$GPRMC,042510.000,A,3158.7604,S,11549.0230,E,2.87,159.60,100315,,,D*77
$GPGGA,042510.200,3158.7610,S,11549.0235,E,2,4,1.60,38.7,M,-29.4,M,0000,0000*5C
$GPGSA,A,3,29,25,31,05,,,,,,,,,1.86,1.60,0.96*0E
$GPGSV,3,1,09,21,72,287,,29,46,127,36,25,46,040,29,42,41,046,25*7D
$GPGSV,3,2,09,31,35,289,17,18,23,006,,05,17,132,37,12,09,042,*75
$GPGSV,3,3,09,16,06,221,*40
$GPRMC,042510.200,A,3158.7610,S,11549.0235,E,1.95,169.15,100315,,,D*74
$GPGGA,042510.400,3158.7614,S,11549.0237,E,2,4,1.59,38.7,M,-29.4,M,0000,0000*56
$GPGSA,A,3,29,25,31,05,,,,,,,,,1.86,1.59,0.96*04
$GPGSV,3,1,09,21,72,287,,29,46,127,36,25,46,040,30,42,41,046,25*75
$GPGSV,3,2,09,31,35,289,17,18,23,006,,05,17,132,36,12,09,042,*74
$GPGSV,3,3,09,16,06,221,*40
$GPRMC,042510.400,A,3158.7614,S,11549.0237,E,2.72,167.73,100315,,,D*70
$GPGGA,042510.600,3158.7618,S,11549.0240,E,2,5,1.55,38.6,M,-29.4,M,0000,0000*54
$GPGSA,A,3,21,29,25,31,05,,,,,,,,1.80,1.55,0.92*09
$GPGSV,3,1,09,21,72,287,27,29,46,127,36,25,46,040,29,42,41,046,25*78
$GPGSV,3,2,09,31,35,289,17,18,23,006,,05,17,132,37,12,09,042,*75
$GPGSV,3,3,09,16,06,221,*40
$GPRMC,042510.600,A,3158.7618,S,11549.0240,E,2.21,166.88,100315,,,D*7D
$GPGGA,042510.800,3158.7625,S,11549.0243,E,2,5,1.55,38.6,M,-29.4,M,0000,0000*57
$GPGSA,A,3,21,29,25,31,05,,,,,,,,1.80,1.55,0.92*09
$GPGSV,3,1,09,21,72,287,27,29,46,127,36,25,46,040,28,42,41,046,25*79
$GPGSV,3,2,09,31,35,289,17,18,23,006,,05,17,132,38,12,09,042,*7A
$GPGSV,3,3,09,16,06,221,*40
$GPRMC,042510.800,A,3158.7625,S,11549.0243,E,2.81,165.94,100315,,,D*7A
$GPGGA,042511.000,3158.7631,S,11549.0246,E,2,5,1.55,38.5,M,-29.4,M,0000,0000*5D
$GPGSA,A,3,21,29,25,31,05,,,,,,,,1.80,1.55,0.92*09
$GPGSV,3,1,09,21,72,287,27,29,46,127,36,25,46,040,27,42,41,046,26*75
$GPGSV,3,2,09,31,35,289,17,18,23,006,,05,17,132,39,12,09,042,*7B
$GPGSV,3,3,09,16,06,221,*40
$GPRMC,042511.000,A,3158.7631,S,11549.0246,E,2.32,165.73,100315,,,D*72
$GPGGA,042511.200,3158.7638,S,11549.0248,E,2,5,1.55,38.5,M,-29.4,M,0000,0000*58
$GPGSA,A,3,21,29,25,31,05,,,,,,,,1.80,1.55,0.92*09
$GPGSV,3,1,09,21,72,287,27,29,46,127,36,25,46,040,27,42,41,046,26*75
$GPGSV,3,2,09,31,35,289,25,18,23,006,,05,17,132,39,12,09,042,*7A
$GPGSV,3,3,09,16,06,221,*40
$GPRMC,042511.200,A,3158.7638,S,11549.0248,E,2.57,168.29,100315,,,D*76
$GPGGA,042511.400,3158.7644,S,11549.0247,E,2,5,1.55,38.4,M,-29.4,M,0000,0000*5B
$GPGSA,A,3,21,29,25,31,05,,,,,,,,1.80,1.55,0.92*09
$GPGSV,3,1,09,21,72,287,27,29,46,127,36,25,46,040,29,42,41,046,26*7B
$GPGSV,3,2,09,31,35,289,25,18,23,006,,05,17,132,39,12,09,042,*7A
$GPGSV,3,3,09,16,06,221,*40
$GPRMC,042511.400,A,3158.7644,S,11549.0247,E,3.43,166.00,100315,,,D*75
$GPGGA,042511.600,3158.7652,S,11549.0249,E,2,5,1.55,38.4,M,-29.4,M,0000,0000*50
$GPGSA,A,3,21,29,25,31,05,,,,,,,,1.80,1.55,0.92*09
$GPGSV,3,1,09,21,72,287,27,29,46,127,36,25,46,040,30,42,41,046,26*73
$GPGSV,3,2,09,31,35,289,25,18,23,006,,05,17,132,39,12,09,042,*7A
$GPGSV,3,3,09,16,06,221,*40
$GPRMC,042511.600,A,3158.7652,S,11549.0249,E,2.99,173.40,100315,,,D*78
$GPGGA,042511.800,3158.7656,S,11549.0250,E,2,5,1.55,38.3,M,-29.4,M,0000,0000*55
$GPGSA,A,3,21,29,25,31,05,,,,,,,,1.80,1.55,0.92*09
$GPGSV,3,1,09,21,72,287,35,29,46,127,36,25,46,040,31,42,41,046,26*71
$GPGSV,3,2,09,31,35,289,25,18,23,006,,05,17,132,38,12,09,042,*7B
$GPGSV,3,3,09,16,06,221,*40
$GPRMC,042511.800,A,3158.7656,S,11549.0250,E,3.04,174.57,100315,,,D*7E
$GPGGA,042512.000,3158.7660,S,11549.0250,E,2,5,1.55,38.3,M,-29.4,M,0000,0000*5B
$GPGSA,A,3,21,29,25,31,05,,,,,,,,1.80,1.55,0.92*09
$GPGSV,3,1,09,21,72,287,35,29,46,127,35,25,46,040,32,42,41,046,26*71
$GPGSV,3,2,09,31,35,289,25,18,23,006,,05,17,132,37,12,09,042,*74
$GPGSV,3,3,09,16,06,221,*40
$GPRMC,042512.000,A,3158.7660,S,11549.0250,E,3.27,174.48,100315,,,D*7F
$GPGGA,042512.200,3158.7664,S,11549.0250,E,2,5,1.55,38.2,M,-29.4,M,0000,0000*5C
$GPGSA,A,3,21,29,25,31,05,,,,,,,,1.80,1.55,0.92*09
$GPGSV,3,1,09,21,72,287,42,29,46,127,34,25,46,040,32,42,41,046,26*70
$GPGSV,3,2,09,31,35,289,25,18,23,006,,05,17,132,37,12,09,042,*74
$GPGSV,3,3,09,16,06,221,*40
$GPRMC,042512.200,A,3158.7664,S,11549.0250,E,3.26,176.55,100315,,,D*76
$GPGGA,042512.400,3158.7667,S,11549.0250,E,2,5,1.55,38.2,M,-29.4,M,0000,0000*59
$GPGSA,A,3,21,29,25,31,05,,,,,,,,1.80,1.55,0.92*09
