$GPWPL,3158.795,S,11549.071,E,P1*3D
$GPWPL,3158.803,S,11549.071,E,P2*3E
$GPWPL,3158.810,S,11549.071,E,P3*3D
$GPWPL,3158.810,S,11549.079,E,P4*32
$GPWPL,3158.803,S,11549.079,E,P5*31
$GPWPL,3158.795,S,11549.079,E,P6*32
$GPRMC,031409.000,A,3158.797,S,11549.065,E,0.00,0.00,070415,,*1B
$GPGGA,031409.000,3158.797,S,11549.065,E,1,00,0.0,0.000,M,0.0,M,,*73
$GPGSA,A,3,,,,,,,,,,,,,0.0,0.0,0.0*32
$GPRMC,031410.000,A,3158.798,S,11549.065,E,0.00,0.00,070415,,*1C
$GPGGA,031410.000,3158.798,S,11549.065,E,1,00,0.0,0.000,M,0.0,M,,*74
$GPGSA,A,3,,,,,,,,,,,,,0.0,0.0,0.0*32
$GPRMC,031410.000,A,3158.798,S,11549.065,E,0.00,0.00,070415,,*1C
$GPGGA,031410.000,3158.798,S,11549.065,E,1,00,0.0,0.000,M,0.0,M,,*74
$GPGSA,A,3,,,,,,,,,,,,,0.0,0.0,0.0*32
$GPRMC,031410.000,A,3158.798,S,11549.065,E,0.00,0.00,070415,,*1C
$GPGGA,031410.000,3158.798,S,11549.065,E,1,00,0.0,0.000,M,0.0,M,,*74
$GPGSA,A,3,,,,,,,,,,,,,0.0,0.0,0.0*32
$GPRMC,031410.000,A,3158.798,S,11549.065,E,0.00,0.00,070415,,*1C
$GPGGA,031410.000,3158.798,S,11549.065,E,1,00,0.0,0.000,M,0.0,M,,*74
$GPGSA,A,3,,,,,,,,,,,,,0.0,0.0,0.0*32
$GPRMC,031410.000,A,3158.799,S,11549.065,E,0.00,0.00,070415,,*1D
$GPGGA,031410.000,3158.799,S,11549.065,E,1,00,0.0,0.000,M,0.0,M,,*75
$GPGSA,A,3,,,,,,,,,,,,,0.0,0.0,0.0*32
$GPRMC,031411.000,A,3158.799,S,11549.065,E,0.00,0.00,070415,,*1C
$GPGGA,031411.000,3158.799,S,11549.065,E,1,00,0.0,0.000,M,0.0,M,,*74
$GPGSA,A,3,,,,,,,,,,,,,0.0,0.0,0.0*32
$GPRMC,031411.000,A,3158.799,S,11549.065,E,0.00,0.00,070415,,*1C
$GPGGA,031411.000,3158.799,S,11549.065,E,1,00,0.0,0.000,M,0.0,M,,*74
$GPGSA,A,3,,,,,,,,,,,,,0.0,0.0,0.0*32
$GPRMC,031411.000,A,3158.799,S,11549.065,E,0.00,0.00,070415,,*1C
$GPGGA,031411.000,3158.799,S,11549.065,E,1,00,0.0,0.000,M,0.0,M,,*74
$GPGSA,A,3,,,,,,,,,,,,,0.0,0.0,0.0*32
$GPRMC,031411.000,A,3158.799,S,11549.065,E,0.00,0.00,070415,,*1C
$GPGGA,031411.000,3158.799,S,11549.065,E,1,00,0.0,0.000,M,0.0,M,,*74
$GPGSA,A,3,,,,,,,,,,,,,0.0,0.0,0.0*32
$GPRMC,031411.000,A,3158.799,S,11549.065,E,0.00,0.00,070415,,*1C
$GPGGA,031411.000,3158.799,S,11549.065,E,1,00,0.0,0.000,M,0.0,M,,*74
$GPGSA,A,3,,,,,,,,,,,,,0.0,0.0,0.0*32
$GPRMC,031412.000,A,3158.799,S,11549.066,E,0.00,0.00,070415,,*1C
$GPGGA,031412.000,3158.799,S,11549.066,E,1,00,0.0,0.000,M,0.0,M,,*74
$GPGSA,A,3,,,,,,,,,,,,,0.0,0.0,0.0*32
$GPRMC,031412.000,A,3158.800,S,11549.066,E,0.00,0.00,070415,,*13
$GPGGA,031412.000,3158.800,S,11549.066,E,1,00,0.0,0.000,M,0.0,M,,*7B
$GPGSA,A,3,,,,,,,,,,,,,0.0,0.0,0.0*32
$GPRMC,031412.000,A,3158.800,S,11549.066,E,0.00,0.00,070415,,*13
$GPGGA,031412.000,3158.800,S,11549.066,E,1,00,0.0,0.000,M,0.0,M,,*7B
$GPGSA,A,3,,,,,,,,,,,,,0.0,0.0,0.0*32
$GPRMC,031412.000,A,3158.800,S,11549.066,E,0.00,0.00,070415,,*13
$GPGGA,031412.000,3158.800,S,11549.066,E,1,00,0.0,0.000,M,0.0,M,,*7B
$GPGSA,A,3,,,,,,,,,,,,,0.0,0.0,0.0*32
$GPRMC,031412.000,A,3158.800,S,11549.066,E,0.00,0.00,070415,,*13
$GPGGA,031412.000,3158.800,S,11549.066,E,1,00,0.0,0.000,M,0.0,M,,*7B
$GPGSA,A,3,,,,,,,,,,,,,0.0,0.0,0.0*32
$GPRMC,031413.000,A,3158.800,S,11549.066,E,0.00,0.00,070415,,*12
$GPGGA,031413.000,3158.800,S,11549.066,E,1,00,0.0,0.000,M,0.0,M,,*7A
$GPGSA,A,3,,,,,,,,,,,,,0.0,0.0,0.0*32
$GPRMC,031413.000,A,3158.800,S,11549.067,E,0.00,0.00,070415,,*13
$GPGGA,031413.000,3158.800,S,11549.067,E,1,00,0.0,0.000,M,0.0,M,,*7B
$GPGSA,A,3,,,,,,,,,,,,,0.0,0.0,0.0*32
$GPRMC,031413.000,A,3158.800,S,11549.067,E,0.00,0.00,070415,,*13
$GPGGA,031413.000,3158.800,S,11549.067,E,1,00,0.0,0.000,M,0.0,M,,*7B
$GPGSA,A,3,,,,,,,,,,,,,0.0,0.0,0.0*32
$GPRMC,031413.000,A,3158.799,S,11549.067,E,0.00,0.00,070415,,*1C
$GPGGA,031413.000,3158.799,S,11549.067,E,1,00,0.0,0.000,M,0.0,M,,*74
$GPGSA,A,3,,,,,,,,,,,,,0.0,0.0,0.0*32
$GPRMC,031413.000,A,3158.799,S,11549.067,E,0.00,0.00,070415,,*1C
$GPGGA,031413.000,3158.799,S,11549.067,E,1,00,0.0,0.000,M,0.0,M,,*74
$GPGSA,A,3,,,,,,,,,,,,,0.0,0.0,0.0*32
$GPRMC,031414.000,A,3158.799,S,11549.067,E,0.00,0.00,070415,,*1B
$GPGGA,031414.000,3158.799,S,11549.067,E,1,00,0.0,0.000,M,0.0,M,,*73
$GPGSA,A,3,,,,,,,,,,,,,0.0,0.0,0.0*32
$GPRMC,031414.000,A,3158.799,S,11549.068,E,0.00,0.00,070415,,*14
$GPGGA,031414.000,3158.799,S,11549.068,E,1,00,0.0,0.000,M,0.0,M,,*7C
$GPGSA,A,3,,,,,,,,,,,,,0.0,0.0,0.0*32
$GPRMC,031414.000,A,3158.799,S,11549.068,E,0.00,0.00,070415,,*14
$GPGGA,031414.000,3158.799,S,11549.068,E,1,00,0.0,0.000,M,0.0,M,,*7C
$GPGSA,A,3,,,,,,,,,,,,,0.0,0.0,0.0*32
$GPRMC,031414.000,A,3158.799,S,11549.068,E,0.00,0.00,070415,,*14
$GPGGA,031414.000,3158.799,S,11549.068,E,1,00,0.0,0.000,M,0.0,M,,*7C
$GPGSA,A,3,,,,,,,,,,,,,0.0,0.0,0.0*32
$GPRMC,031414.000,A,3158.799,S,11549.068,E,0.00,0.00,070415,,*14
$GPGGA,031414.000,3158.799,S,11549.068,E,1,00,0.0,0.000,M,0.0,M,,*7C
$GPGSA,A,3,,,,,,,,,,,,,0.0,0.0,0.0*32
$GPRMC,031415.000,A,3158.799,S,11549.068,E,0.00,0.00,070415,,*15
$GPGGA,031415.000,3158.799,S,11549.068,E,1,00,0.0,0.000,M,0.0,M,,*7D
$GPGSA,A,3,,,,,,,,,,,,,0.0,0.0,0.0*32
$GPRMC,031415.000,A,3158.798,S,11549.068,E,0.00,0.00,070415,,*14
$GPGGA,031415.000,3158.798,S,11549.068,E,1,00,0.0,0.000,M,0.0,M,,*7C
$GPGSA,A,3,,,,,,,,,,,,,0.0,0.0,0.0*32
$GPRMC,031415.000,A,3158.798,S,11549.068,E,0.00,0.00,070415,,*14
$GPGGA,031415.000,3158.798,S,11549.068,E,1,00,0.0,0.000,M,0.0,M,,*7C
$GPGSA,A,3,,,,,,,,,,,,,0.0,0.0,0.0*32
$GPRMC,031415.000,A,3158.798,S,11549.068,E,0.00,0.00,070415,,*14
$GPGGA,031415.000,3158.798,S,11549.068,E,1,00,0.0,0.000,M,0.0,M,,*7C
$GPGSA,A,3,,,,,,,,,,,,,0.0,0.0,0.0*32
$GPRMC,031415.000,A,3158.798,S,11549.069,E,0.00,0.00,070415,,*15
$GPGGA,031415.000,3158.798,S,11549.069,E,1,00,0.0,0.000,M,0.0,M,,*7D
$GPGSA,A,3,,,,,,,,,,,,,0.0,0.0,0.0*32
$GPRMC,031416.000,A,3158.798,S,11549.069,E,0.00,0.00,070415,,*16
$GPGGA,031416.000,3158.798,S,11549.069,E,1,00,0.0,0.000,M,0.0,M,,*7E
$GPGSA,A,3,,,,,,,,,,,,,0.0,0.0,0.0*32
$GPRMC,031416.000,A,3158.798,S,11549.069,E,0.00,0.00,070415,,*16
$GPGGA,031416.000,3158.798,S,11549.069,E,1,00,0.0,0.000,M,0.0,M,,*7E
$GPGSA,A,3,,,,,,,,,,,,,0.0,0.0,0.0*32
$GPRMC,031416.000,A,3158.797,S,11549.069,E,0.00,0.00,070415,,*19
$GPGGA,031416.000,3158.797,S,11549.069,E,1,00,0.0,0.000,M,0.0,M,,*71
$GPGSA,A,3,,,,,,,,,,,,,0.0,0.0,0.0*32
$GPRMC,031416.000,A,3158.797,S,11549.069,E,0.00,0.00,070415,,*19
$GPGGA,031416.000,3158.797,S,11549.069,E,1,00,0.0,0.000,M,0.0,M,,*71
$GPGSA,A,3,,,,,,,,,,,,,0.0,0.0,0.0*32
$GPRMC,031416.000,A,3158.797,S,11549.069,E,0.00,0.00,070415,,*19
$GPGGA,031416.000,3158.797,S,11549.069,E,1,00,0.0,0.000,M,0.0,M,,*71
$GPGSA,A,3,,,,,,,,,,,,,0.0,0.0,0.0*32
$GPRMC,031417.000,A,3158.797,S,11549.069,E,0.00,0.00,070415,,*18
$GPGGA,031417.000,3158.797,S,11549.069,E,1,00,0.0,0.000,M,0.0,M,,*70
$GPGSA,A,3,,,,,,,,,,,,,0.0,0.0,0.0*32
$GPRMC,031417.000,A,3158.796,S,11549.069,E,0.00,0.00,070415,,*19
$GPGGA,031417.000,3158.796,S,11549.069,E,1,00,0.0,0.000,M,0.0,M,,*71
$GPGSA,A,3,,,,,,,,,,,,,0.0,0.0,0.0*32
$GPRMC,031417.000,A,3158.796,S,11549.069,E,0.00,0.00,070415,,*19
$GPGGA,031417.000,3158.796,S,11549.069,E,1,00,0.0,0.000,M,0.0,M,,*71
$GPGSA,A,3,,,,,,,,,,,,,0.0,0.0,0.0*32
$GPRMC,031417.000,A,3158.796,S,11549.069,E,0.00,0.00,070415,,*19
$GPGGA,031417.000,3158.796,S,11549.069,E,1,00,0.0,0.000,M,0.0,M,,*71
$GPGSA,A,3,,,,,,,,,,,,,0.0,0.0,0.0*32
$GPRMC,031417.000,A,3158.796,S,11549.069,E,0.00,0.00,070415,,*19
$GPGGA,031417.000,3158.796,S,11549.069,E,1,00,0.0,0.000,M,0.0,M,,*71
$GPGSA,A,3,,,,,,,,,,,,,0.0,0.0,0.0*32
$GPRMC,031418.000,A,3158.795,S,11549.069,E,0.00,0.00,070415,,*15
$GPGGA,031418.000,3158.795,S,11549.069,E,1,00,0.0,0.000,M,0.0,M,,*7D
$GPGSA,A,3,,,,,,,,,,,,,0.0,0.0,0.0*32
$GPRMC,031418.000,A,3158.795,S,11549.070,E,0.00,0.00,070415,,*1D
$GPGGA,031418.000,3158.795,S,11549.070,E,1,00,0.0,0.000,M,0.0,M,,*75
$GPGSA,A,3,,,,,,,,,,,,,0.0,0.0,0.0*32
$GPRMC,031418.000,A,3158.795,S,11549.070,E,0.00,0.00,070415,,*1D
$GPGGA,031418.000,3158.795,S,11549.070,E,1,00,0.0,0.000,M,0.0,M,,*75
$GPGSA,A,3,,,,,,,,,,,,,0.0,0.0,0.0*32
$GPRMC,031418.000,A,3158.794,S,11549.070,E,0.00,0.00,070415,,*1C
$GPGGA,031418.000,3158.794,S,11549.070,E,1,00,0.0,0.000,M,0.0,M,,*74
$GPGSA,A,3,,,,,,,,,,,,,0.0,0.0,0.0*32
$GPRMC,031419.000,A,3158.794,S,11549.070,E,0.00,0.00,070415,,*1D
$GPGGA,031419.000,3158.794,S,11549.070,E,1,00,0.0,0.000,M,0.0,M,,*75
$GPGSA,A,3,,,,,,,,,,,,,0.0,0.0,0.0*32
$GPRMC,031419.000,A,3158.794,S,11549.070,E,0.00,0.00,070415,,*1D
$GPGGA,031419.000,3158.794,S,11549.070,E,1,00,0.0,0.000,M,0.0,M,,*75
$GPGSA,A,3,,,,,,,,,,,,,0.0,0.0,0.0*32
$GPRMC,031419.000,A,3158.794,S,11549.070,E,0.00,0.00,070415,,*1D
$GPGGA,031419.000,3158.794,S,11549.070,E,1,00,0.0,0.000,M,0.0,M,,*75
$GPGSA,A,3,,,,,,,,,,,,,0.0,0.0,0.0*32
$GPRMC,031419.000,A,3158.794,S,11549.070,E,0.00,0.00,070415,,*1D
$GPGGA,031419.000,3158.794,S,11549.070,E,1,00,0.0,0.000,M,0.0,M,,*75
$GPGSA,A,3,,,,,,,,,,,,,0.0,0.0,0.0*32
$GPRMC,031419.000,A,3158.793,S,11549.070,E,0.00,0.00,070415,,*1A
$GPGGA,031419.000,3158.793,S,11549.070,E,1,00,0.0,0.000,M,0.0,M,,*72
$GPGSA,A,3,,,,,,,,,,,,,0.0,0.0,0.0*32
$GPRMC,031420.000,A,3158.793,S,11549.070,E,0.00,0.00,070415,,*10
$GPGGA,031420.000,3158.793,S,11549.070,E,1,00,0.0,0.000,M,0.0,M,,*78
$GPGSA,A,3,,,,,,,,,,,,,0.0,0.0,0.0*32
$GPRMC,031420.000,A,3158.793,S,11549.070,E,0.00,0.00,070415,,*10
$GPGGA,031420.000,3158.793,S,11549.070,E,1,00,0.0,0.000,M,0.0,M,,*78
$GPGSA,A,3,,,,,,,,,,,,,0.0,0.0,0.0*32
$GPRMC,031420.000,A,3158.793,S,11549.069,E,0.00,0.00,070415,,*18
$GPGGA,031420.000,3158.793,S,11549.069,E,1,00,0.0,0.000,M,0.0,M,,*70
$GPGSA,A,3,,,,,,,,,,,,,0.0,0.0,0.0*32
$GPRMC,031420.000,A,3158.793,S,11549.069,E,0.00,0.00,070415,,*18
$GPGGA,031420.000,3158.793,S,11549.069,E,1,00,0.0,0.000,M,0.0,M,,*70
$GPGSA,A,3,,,,,,,,,,,,,0.0,0.0,0.0*32
$GPRMC,031420.000,A,3158.793,S,11549.069,E,0.00,0.00,070415,,*18
$GPGGA,031420.000,3158.793,S,11549.069,E,1,00,0.0,0.000,M,0.0,M,,*70
$GPGSA,A,3,,,,,,,,,,,,,0.0,0.0,0.0*32
$GPRMC,031421.000,A,3158.793,S,11549.069,E,0.00,0.00,070415,,*19
$GPGGA,031421.000,3158.793,S,11549.069,E,1,00,0.0,0.000,M,0.0,M,,*71
$GPGSA,A,3,,,,,,,,,,,,,0.0,0.0,0.0*32
$GPRMC,031421.000,A,3158.793,S,11549.069,E,0.00,0.00,070415,,*19
$GPGGA,031421.000,3158.793,S,11549.069,E,1,00,0.0,0.000,M,0.0,M,,*71
$GPGSA,A,3,,,,,,,,,,,,,0.0,0.0,0.0*32
$GPRMC,031421.000,A,3158.793,S,11549.069,E,0.00,0.00,070415,,*19
$GPGGA,031421.000,3158.793,S,11549.069,E,1,00,0.0,0.000,M,0.0,M,,*71
$GPGSA,A,3,,,,,,,,,,,,,0.0,0.0,0.0*32
$GPRMC,031421.000,A,3158.793,S,11549.069,E,0.00,0.00,070415,,*19
$GPGGA,031421.000,3158.793,S,11549.069,E,1,00,0.0,0.000,M,0.0,M,,*71
$GPGSA,A,3,,,,,,,,,,,,,0.0,0.0,0.0*32
$GPRMC,031421.000,A,3158.793,S,11549.068,E,0.00,0.00,070415,,*18
$GPGGA,031421.000,3158.793,S,11549.068,E,1,00,0.0,0.000,M,0.0,M,,*70
$GPGSA,A,3,,,,,,,,,,,,,0.0,0.0,0.0*32
$GPRMC,031422.000,A,3158.793,S,11549.068,E,0.00,0.00,070415,,*1B
$GPGGA,031422.000,3158.793,S,11549.068,E,1,00,0.0,0.000,M,0.0,M,,*73
$GPGSA,A,3,,,,,,,,,,,,,0.0,0.0,0.0*32
$GPRMC,031422.000,A,3158.793,S,11549.068,E,0.00,0.00,070415,,*1B
$GPGGA,031422.000,3158.793,S,11549.068,E,1,00,0.0,0.000,M,0.0,M,,*73
$GPGSA,A,3,,,,,,,,,,,,,0.0,0.0,0.0*32
$GPRMC,031422.000,A,3158.794,S,11549.068,E,0.00,0.00,070415,,*1C
$GPGGA,031422.000,3158.794,S,11549.068,E,1,00,0.0,0.000,M,0.0,M,,*74
$GPGSA,A,3,,,,,,,,,,,,,0.0,0.0,0.0*32
$GPRMC,031422.000,A,3158.794,S,11549.068,E,0.00,0.00,070415,,*1C
$GPGGA,031422.000,3158.794,S,11549.068,E,1,00,0.0,0.000,M,0.0,M,,*74
$GPGSA,A,3,,,,,,,,,,,,,0.0,0.0,0.0*32
$GPRMC,031422.000,A,3158.794,S,11549.068,E,0.00,0.00,070415,,*1C
$GPGGA,031422.000,3158.794,S,11549.068,E,1,00,0.0,0.000,M,0.0,M,,*74
$GPGSA,A,3,,,,,,,,,,,,,0.0,0.0,0.0*32
$GPRMC,031423.000,A,3158.794,S,11549.068,E,0.00,0.00,070415,,*1D
$GPGGA,031423.000,3158.794,S,11549.068,E,1,00,0.0,0.000,M,0.0,M,,*75
$GPGSA,A,3,,,,,,,,,,,,,0.0,0.0,0.0*32
$GPRMC,031423.000,A,3158.794,S,11549.068,E,0.00,0.00,070415,,*1D
$GPGGA,031423.000,3158.794,S,11549.068,E,1,00,0.0,0.000,M,0.0,M,,*75
$GPGSA,A,3,,,,,,,,,,,,,0.0,0.0,0.0*32
$GPRMC,031423.000,A,3158.794,S,11549.068,E,0.00,0.00,070415,,*1D
$GPGGA,031423.000,3158.794,S,11549.068,E,1,00,0.0,0.000,M,0.0,M,,*75
$GPGSA,A,3,,,,,,,,,,,,,0.0,0.0,0.0*32
$GPRMC,031423.000,A,3158.794,S,11549.067,E,0.00,0.00,070415,,*12
$GPGGA,031423.000,3158.794,S,11549.067,E,1,00,0.0,0.000,M,0.0,M,,*7A
$GPGSA,A,3,,,,,,,,,,,,,0.0,0.0,0.0*32
$GPRMC,031423.000,A,3158.794,S,11549.067,E,0.00,0.00,070415,,*12
$GPGGA,031423.000,3158.794,S,11549.067,E,1,00,0.0,0.000,M,0.0,M,,*7A
$GPGSA,A,3,,,,,,,,,,,,,0.0,0.0,0.0*32
$GPRMC,031424.000,A,3158.794,S,11549.067,E,0.00,0.00,070415,,*15
$GPGGA,031424.000,3158.794,S,11549.067,E,1,00,0.0,0.000,M,0.0,M,,*7D
$GPGSA,A,3,,,,,,,,,,,,,0.0,0.0,0.0*32
$GPRMC,031424.000,A,3158.795,S,11549.067,E,0.00,0.00,070415,,*14
$GPGGA,031424.000,3158.795,S,11549.067,E,1,00,0.0,0.000,M,0.0,M,,*7C
$GPGSA,A,3,,,,,,,,,,,,,0.0,0.0,0.0*32
$GPRMC,031424.000,A,3158.795,S,11549.067,E,0.00,0.00,070415,,*14
$GPGGA,031424.000,3158.795,S,11549.067,E,1,00,0.0,0.000,M,0.0,M,,*7C
$GPGSA,A,3,,,,,,,,,,,,,0.0,0.0,0.0*32
$GPRMC,031424.000,A,3158.795,S,11549.067,E,0.00,0.00,070415,,*14
$GPGGA,031424.000,3158.795,S,11549.067,E,1,00,0.0,0.000,M,0.0,M,,*7C
$GPGSA,A,3,,,,,,,,,,,,,0.0,0.0,0.0*32
$GPRMC,031424.000,A,3158.795,S,11549.067,E,0.00,0.00,070415,,*14
$GPGGA,031424.000,3158.795,S,11549.067,E,1,00,0.0,0.000,M,0.0,M,,*7C
$GPGSA,A,3,,,,,,,,,,,,,0.0,0.0,0.0*32
$GPRMC,031425.000,A,3158.795,S,11549.067,E,0.00,0.00,070415,,*15
$GPGGA,031425.000,3158.795,S,11549.067,E,1,00,0.0,0.000,M,0.0,M,,*7D
$GPGSA,A,3,,,,,,,,,,,,,0.0,0.0,0.0*32
$GPRMC,031425.000,A,3158.796,S,11549.067,E,0.00,0.00,070415,,*16
$GPGGA,031425.000,3158.796,S,11549.067,E,1,00,0.0,0.000,M,0.0,M,,*7E
$GPGSA,A,3,,,,,,,,,,,,,0.0,0.0,0.0*32
$GPRMC,031425.000,A,3158.796,S,11549.067,E,0.00,0.00,070415,,*16
$GPGGA,031425.000,3158.796,S,11549.067,E,1,00,0.0,0.000,M,0.0,M,,*7E
$GPGSA,A,3,,,,,,,,,,,,,0.0,0.0,0.0*32
$GPRMC,031425.000,A,3158.796,S,11549.067,E,0.00,0.00,070415,,*16
$GPGGA,031425.000,3158.796,S,11549.067,E,1,00,0.0,0.000,M,0.0,M,,*7E
$GPGSA,A,3,,,,,,,,,,,,,0.0,0.0,0.0*32
$GPRMC,031425.000,A,3158.796,S,11549.067,E,0.00,0.00,070415,,*16
$GPGGA,031425.000,3158.796,S,11549.067,E,1,00,0.0,0.000,M,0.0,M,,*7E
$GPGSA,A,3,,,,,,,,,,,,,0.0,0.0,0.0*32
$GPRMC,031426.000,A,3158.796,S,11549.067,E,0.00,0.00,070415,,*15
$GPGGA,031426.000,3158.796,S,11549.067,E,1,00,0.0,0.000,M,0.0,M,,*7D
$GPGSA,A,3,,,,,,,,,,,,,0.0,0.0,0.0*32
$GPRMC,031426.000,A,3158.797,S,11549.067,E,0.00,0.00,070415,,*14
$GPGGA,031426.000,3158.797,S,11549.067,E,1,00,0.0,0.000,M,0.0,M,,*7C
$GPGSA,A,3,,,,,,,,,,,,,0.0,0.0,0.0*32
$GPRMC,031426.000,A,3158.797,S,11549.067,E,0.00,0.00,070415,,*14
$GPGGA,031426.000,3158.797,S,11549.067,E,1,00,0.0,0.000,M,0.0,M,,*7C
$GPGSA,A,3,,,,,,,,,,,,,0.0,0.0,0.0*32
$GPRMC,031426.000,A,3158.797,S,11549.067,E,0.00,0.00,070415,,*14
$GPGGA,031426.000,3158.797,S,11549.067,E,1,00,0.0,0.000,M,0.0,M,,*7C
$GPGSA,A,3,,,,,,,,,,,,,0.0,0.0,0.0*32
$GPRMC,031426.000,A,3158.797,S,11549.067,E,0.00,0.00,070415,,*14
$GPGGA,031426.000,3158.797,S,11549.067,E,1,00,0.0,0.000,M,0.0,M,,*7C
$GPGSA,A,3,,,,,,,,,,,,,0.0,0.0,0.0*32
$GPRMC,031427.000,A,3158.797,S,11549.067,E,0.00,0.00,070415,,*15
$GPGGA,031427.000,3158.797,S,11549.067,E,1,00,0.0,0.000,M,0.0,M,,*7D
$GPGSA,A,3,,,,,,,,,,,,,0.0,0.0,0.0*32
$GPRMC,031427.000,A,3158.797,S,11549.067,E,0.00,0.00,070415,,*15
$GPGGA,031427.000,3158.797,S,11549.067,E,1,00,0.0,0.000,M,0.0,M,,*7D
$GPGSA,A,3,,,,,,,,,,,,,0.0,0.0,0.0*32
$GPRMC,031427.000,A,3158.798,S,11549.067,E,0.00,0.00,070415,,*1A
$GPGGA,031427.000,3158.798,S,11549.067,E,1,00,0.0,0.000,M,0.0,M,,*72
$GPGSA,A,3,,,,,,,,,,,,,0.0,0.0,0.0*32
$GPRMC,031427.000,A,3158.798,S,11549.067,E,0.00,0.00,070415,,*1A
$GPGGA,031427.000,3158.798,S,11549.067,E,1,00,0.0,0.000,M,0.0,M,,*72
$GPGSA,A,3,,,,,,,,,,,,,0.0,0.0,0.0*32
$GPRMC,031427.000,A,3158.798,S,11549.068,E,0.00,0.00,070415,,*15
$GPGGA,031427.000,3158.798,S,11549.068,E,1,00,0.0,0.000,M,0.0,M,,*7D
$GPGSA,A,3,,,,,,,,,,,,,0.0,0.0,0.0*32
$GPRMC,031428.000,A,3158.798,S,11549.068,E,0.00,0.00,070415,,*1A
$GPGGA,031428.000,3158.798,S,11549.068,E,1,00,0.0,0.000,M,0.0,M,,*72
$GPGSA,A,3,,,,,,,,,,,,,0.0,0.0,0.0*32
$GPRMC,031428.000,A,3158.798,S,11549.068,E,0.00,0.00,070415,,*1A
$GPGGA,031428.000,3158.798,S,11549.068,E,1,00,0.0,0.000,M,0.0,M,,*72
$GPGSA,A,3,,,,,,,,,,,,,0.0,0.0,0.0*32
$GPRMC,031428.000,A,3158.799,S,11549.068,E,0.00,0.00,070415,,*1B
$GPGGA,031428.000,3158.799,S,11549.068,E,1,00,0.0,0.000,M,0.0,M,,*73
$GPGSA,A,3,,,,,,,,,,,,,0.0,0.0,0.0*32
$GPRMC,031428.000,A,3158.799,S,11549.068,E,0.00,0.00,070415,,*1B
$GPGGA,031428.000,3158.799,S,11549.068,E,1,00,0.0,0.000,M,0.0,M,,*73
$GPGSA,A,3,,,,,,,,,,,,,0.0,0.0,0.0*32
$GPRMC,031429.000,A,3158.799,S,11549.068,E,0.00,0.00,070415,,*1A
$GPGGA,031429.000,3158.799,S,11549.068,E,1,00,0.0,0.000,M,0.0,M,,*72
$GPGSA,A,3,,,,,,,,,,,,,0.0,0.0,0.0*32
$GPRMC,031429.000,A,3158.799,S,11549.068,E,0.00,0.00,070415,,*1A
$GPGGA,031429.000,3158.799,S,11549.068,E,1,00,0.0,0.000,M,0.0,M,,*72
$GPGSA,A,3,,,,,,,,,,,,,0.0,0.0,0.0*32
$GPRMC,031429.000,A,3158.799,S,11549.068,E,0.00,0.00,070415,,*1A
$GPGGA,031429.000,3158.799,S,11549.068,E,1,00,0.0,0.000,M,0.0,M,,*72
$GPGSA,A,3,,,,,,,,,,,,,0.0,0.0,0.0*32
$GPRMC,031429.000,A,3158.800,S,11549.069,E,0.00,0.00,070415,,*14
$GPGGA,031429.000,3158.800,S,11549.069,E,1,00,0.0,0.000,M,0.0,M,,*7C
$GPGSA,A,3,,,,,,,,,,,,,0.0,0.0,0.0*32
$GPRMC,031429.000,A,3158.800,S,11549.069,E,0.00,0.00,070415,,*14
$GPGGA,031429.000,3158.800,S,11549.069,E,1,00,0.0,0.000,M,0.0,M,,*7C
$GPGSA,A,3,,,,,,,,,,,,,0.0,0.0,0.0*32
$GPRMC,031430.000,A,3158.800,S,11549.069,E,0.00,0.00,070415,,*1C
$GPGGA,031430.000,3158.800,S,11549.069,E,1,00,0.0,0.000,M,0.0,M,,*74
$GPGSA,A,3,,,,,,,,,,,,,0.0,0.0,0.0*32
$GPRMC,031430.000,A,3158.800,S,11549.069,E,0.00,0.00,070415,,*1C
$GPGGA,031430.000,3158.800,S,11549.069,E,1,00,0.0,0.000,M,0.0,M,,*74
$GPGSA,A,3,,,,,,,,,,,,,0.0,0.0,0.0*32
$GPRMC,031430.000,A,3158.800,S,11549.069,E,0.00,0.00,070415,,*1C
$GPGGA,031430.000,3158.800,S,11549.069,E,1,00,0.0,0.000,M,0.0,M,,*74
$GPGSA,A,3,,,,,,,,,,,,,0.0,0.0,0.0*32
$GPRMC,031430.000,A,3158.800,S,11549.069,E,0.00,0.00,070415,,*1C
$GPGGA,031430.000,3158.800,S,11549.069,E,1,00,0.0,0.000,M,0.0,M,,*74
$GPGSA,A,3,,,,,,,,,,,,,0.0,0.0,0.0*32
$GPRMC,031430.000,A,3158.801,S,11549.070,E,0.00,0.00,070415,,*15
$GPGGA,031430.000,3158.801,S,11549.070,E,1,00,0.0,0.000,M,0.0,M,,*7D
$GPGSA,A,3,,,,,,,,,,,,,0.0,0.0,0.0*32
$GPRMC,031431.000,A,3158.801,S,11549.070,E,0.00,0.00,070415,,*14
$GPGGA,031431.000,3158.801,S,11549.070,E,1,00,0.0,0.000,M,0.0,M,,*7C
$GPGSA,A,3,,,,,,,,,,,,,0.0,0.0,0.0*32
$GPRMC,031431.000,A,3158.801,S,11549.070,E,0.00,0.00,070415,,*14
$GPGGA,031431.000,3158.801,S,11549.070,E,1,00,0.0,0.000,M,0.0,M,,*7C
$GPGSA,A,3,,,,,,,,,,,,,0.0,0.0,0.0*32
$GPRMC,031431.000,A,3158.801,S,11549.070,E,0.00,0.00,070415,,*14
$GPGGA,031431.000,3158.801,S,11549.070,E,1,00,0.0,0.000,M,0.0,M,,*7C
$GPGSA,A,3,,,,,,,,,,,,,0.0,0.0,0.0*32
$GPRMC,031431.000,A,3158.801,S,11549.070,E,0.00,0.00,070415,,*14
$GPGGA,031431.000,3158.801,S,11549.070,E,1,00,0.0,0.000,M,0.0,M,,*7C
$GPGSA,A,3,,,,,,,,,,,,,0.0,0.0,0.0*32
$GPRMC,031431.000,A,3158.801,S,11549.071,E,0.00,0.00,070415,,*15
$GPGGA,031431.000,3158.801,S,11549.071,E,1,00,0.0,0.000,M,0.0,M,,*7D
$GPGSA,A,3,,,,,,,,,,,,,0.0,0.0,0.0*32
$GPRMC,031432.000,A,3158.801,S,11549.071,E,0.00,0.00,070415,,*16
$GPGGA,031432.000,3158.801,S,11549.071,E,1,00,0.0,0.000,M,0.0,M,,*7E
$GPGSA,A,3,,,,,,,,,,,,,0.0,0.0,0.0*32
$GPRMC,031432.000,A,3158.801,S,11549.071,E,0.00,0.00,070415,,*16
$GPGGA,031432.000,3158.801,S,11549.071,E,1,00,0.0,0.000,M,0.0,M,,*7E
$GPGSA,A,3,,,,,,,,,,,,,0.0,0.0,0.0*32
$GPRMC,031432.000,A,3158.802,S,11549.071,E,0.00,0.00,070415,,*15
$GPGGA,031432.000,3158.802,S,11549.071,E,1,00,0.0,0.000,M,0.0,M,,*7D
$GPGSA,A,3,,,,,,,,,,,,,0.0,0.0,0.0*32
$GPRMC,031432.000,A,3158.802,S,11549.071,E,0.00,0.00,070415,,*15
$GPGGA,031432.000,3158.802,S,11549.071,E,1,00,0.0,0.000,M,0.0,M,,*7D
$GPGSA,A,3,,,,,,,,,,,,,0.0,0.0,0.0*32
$GPRMC,031432.000,A,3158.802,S,11549.071,E,0.00,0.00,070415,,*15
$GPGGA,031432.000,3158.802,S,11549.071,E,1,00,0.0,0.000,M,0.0,M,,*7D
$GPGSA,A,3,,,,,,,,,,,,,0.0,0.0,0.0*32
$GPRMC,031433.000,A,3158.802,S,11549.072,E,0.00,0.00,070415,,*17
$GPGGA,031433.000,3158.802,S,11549.072,E,1,00,0.0,0.000,M,0.0,M,,*7F
$GPGSA,A,3,,,,,,,,,,,,,0.0,0.0,0.0*32
$GPRMC,031433.000,A,3158.802,S,11549.072,E,0.00,0.00,070415,,*17
$GPGGA,031433.000,3158.802,S,11549.072,E,1,00,0.0,0.000,M,0.0,M,,*7F
$GPGSA,A,3,,,,,,,,,,,,,0.0,0.0,0.0*32
$GPRMC,031433.000,A,3158.802,S,11549.072,E,0.00,0.00,070415,,*17
$GPGGA,031433.000,3158.802,S,11549.072,E,1,00,0.0,0.000,M,0.0,M,,*7F
$GPGSA,A,3,,,,,,,,,,,,,0.0,0.0,0.0*32
$GPRMC,031433.000,A,3158.802,S,11549.072,E,0.00,0.00,070415,,*17
$GPGGA,031433.000,3158.802,S,11549.072,E,1,00,0.0,0.000,M,0.0,M,,*7F
$GPGSA,A,3,,,,,,,,,,,,,0.0,0.0,0.0*32
$GPRMC,031434.000,A,3158.802,S,11549.072,E,0.00,0.00,070415,,*10
$GPGGA,031434.000,3158.802,S,11549.072,E,1,00,0.0,0.000,M,0.0,M,,*78
$GPGSA,A,3,,,,,,,,,,,,,0.0,0.0,0.0*32
$GPRMC,031434.000,A,3158.802,S,11549.072,E,0.00,0.00,070415,,*10
$GPGGA,031434.000,3158.802,S,11549.072,E,1,00,0.0,0.000,M,0.0,M,,*78
$GPGSA,A,3,,,,,,,,,,,,,0.0,0.0,0.0*32
$GPRMC,031434.000,A,3158.802,S,11549.072,E,0.00,0.00,070415,,*10
$GPGGA,031434.000,3158.802,S,11549.072,E,1,00,0.0,0.000,M,0.0,M,,*78
$GPGSA,A,3,,,,,,,,,,,,,0.0,0.0,0.0*32
$GPRMC,031434.000,A,3158.802,S,11549.072,E,0.00,0.00,070415,,*10
$GPGGA,031434.000,3158.802,S,11549.072,E,1,00,0.0,0.000,M,0.0,M,,*78
$GPGSA,A,3,,,,,,,,,,,,,0.0,0.0,0.0*32
$GPRMC,031434.000,A,3158.802,S,11549.072,E,0.00,0.00,070415,,*10
$GPGGA,031434.000,3158.802,S,11549.072,E,1,00,0.0,0.000,M,0.0,M,,*78
$GPGSA,A,3,,,,,,,,,,,,,0.0,0.0,0.0*32
$GPRMC,031435.000,A,3158.802,S,11549.072,E,0.00,0.00,070415,,*11
$GPGGA,031435.000,3158.802,S,11549.072,E,1,00,0.0,0.000,M,0.0,M,,*79
$GPGSA,A,3,,,,,,,,,,,,,0.0,0.0,0.0*32
$GPRMC,031435.000,A,3158.802,S,11549.072,E,0.00,0.00,070415,,*11
$GPGGA,031435.000,3158.802,S,11549.072,E,1,00,0.0,0.000,M,0.0,M,,*79
$GPGSA,A,3,,,,,,,,,,,,,0.0,0.0,0.0*32
$GPRMC,031435.000,A,3158.802,S,11549.072,E,0.00,0.00,070415,,*11
$GPGGA,031435.000,3158.802,S,11549.072,E,1,00,0.0,0.000,M,0.0,M,,*79
$GPGSA,A,3,,,,,,,,,,,,,0.0,0.0,0.0*32
$GPRMC,031435.000,A,3158.802,S,11549.073,E,0.00,0.00,070415,,*10
$GPGGA,031435.000,3158.802,S,11549.073,E,1,00,0.0,0.000,M,0.0,M,,*78
$GPGSA,A,3,,,,,,,,,,,,,0.0,0.0,0.0*32
$GPRMC,031435.000,A,3158.802,S,11549.073,E,0.00,0.00,070415,,*10
$GPGGA,031435.000,3158.802,S,11549.073,E,1,00,0.0,0.000,M,0.0,M,,*78
$GPGSA,A,3,,,,,,,,,,,,,0.0,0.0,0.0*32
$GPRMC,031436.000,A,3158.803,S,11549.073,E,0.00,0.00,070415,,*12
$GPGGA,031436.000,3158.803,S,11549.073,E,1,00,0.0,0.000,M,0.0,M,,*7A
$GPGSA,A,3,,,,,,,,,,,,,0.0,0.0,0.0*32
$GPRMC,031436.000,A,3158.803,S,11549.073,E,0.00,0.00,070415,,*12
$GPGGA,031436.000,3158.803,S,11549.073,E,1,00,0.0,0.000,M,0.0,M,,*7A
$GPGSA,A,3,,,,,,,,,,,,,0.0,0.0,0.0*32
$GPRMC,031436.000,A,3158.803,S,11549.073,E,0.00,0.00,070415,,*12
$GPGGA,031436.000,3158.803,S,11549.073,E,1,00,0.0,0.000,M,0.0,M,,*7A
$GPGSA,A,3,,,,,,,,,,,,,0.0,0.0,0.0*32
$GPRMC,031436.000,A,3158.803,S,11549.073,E,0.00,0.00,070415,,*12
$GPGGA,031436.000,3158.803,S,11549.073,E,1,00,0.0,0.000,M,0.0,M,,*7A
$GPGSA,A,3,,,,,,,,,,,,,0.0,0.0,0.0*32
$GPRMC,031436.000,A,3158.803,S,11549.072,E,0.00,0.00,070415,,*13
$GPGGA,031436.000,3158.803,S,11549.072,E,1,00,0.0,0.000,M,0.0,M,,*7B
$GPGSA,A,3,,,,,,,,,,,,,0.0,0.0,0.0*32
$GPRMC,031437.000,A,3158.803,S,11549.072,E,0.00,0.00,070415,,*12
$GPGGA,031437.000,3158.803,S,11549.072,E,1,00,0.0,0.000,M,0.0,M,,*7A
$GPGSA,A,3,,,,,,,,,,,,,0.0,0.0,0.0*32
$GPRMC,031437.000,A,3158.803,S,11549.072,E,0.00,0.00,070415,,*12
$GPGGA,031437.000,3158.803,S,11549.072,E,1,00,0.0,0.000,M,0.0,M,,*7A
$GPGSA,A,3,,,,,,,,,,,,,0.0,0.0,0.0*32
$GPRMC,031437.000,A,3158.803,S,11549.072,E,0.00,0.00,070415,,*12
$GPGGA,031437.000,3158.803,S,11549.072,E,1,00,0.0,0.000,M,0.0,M,,*7A
$GPGSA,A,3,,,,,,,,,,,,,0.0,0.0,0.0*32
$GPRMC,031437.000,A,3158.803,S,11549.072,E,0.00,0.00,070415,,*12
$GPGGA,031437.000,3158.803,S,11549.072,E,1,00,0.0,0.000,M,0.0,M,,*7A
$GPGSA,A,3,,,,,,,,,,,,,0.0,0.0,0.0*32
$GPRMC,031438.000,A,3158.803,S,11549.072,E,0.00,0.00,070415,,*1D
$GPGGA,031438.000,3158.803,S,11549.072,E,1,00,0.0,0.000,M,0.0,M,,*75
$GPGSA,A,3,,,,,,,,,,,,,0.0,0.0,0.0*32
$GPRMC,031438.000,A,3158.804,S,11549.072,E,0.00,0.00,070415,,*1A
$GPGGA,031438.000,3158.804,S,11549.072,E,1,00,0.0,0.000,M,0.0,M,,*72
$GPGSA,A,3,,,,,,,,,,,,,0.0,0.0,0.0*32
$GPRMC,031438.000,A,3158.804,S,11549.072,E,0.00,0.00,070415,,*1A
$GPGGA,031438.000,3158.804,S,11549.072,E,1,00,0.0,0.000,M,0.0,M,,*72
$GPGSA,A,3,,,,,,,,,,,,,0.0,0.0,0.0*32
$GPRMC,031438.000,A,3158.804,S,11549.072,E,0.00,0.00,070415,,*1A
$GPGGA,031438.000,3158.804,S,11549.072,E,1,00,0.0,0.000,M,0.0,M,,*72
$GPGSA,A,3,,,,,,,,,,,,,0.0,0.0,0.0*32
$GPRMC,031438.000,A,3158.804,S,11549.072,E,0.00,0.00,070415,,*1A
$GPGGA,031438.000,3158.804,S,11549.072,E,1,00,0.0,0.000,M,0.0,M,,*72
$GPGSA,A,3,,,,,,,,,,,,,0.0,0.0,0.0*32
$GPRMC,031439.000,A,3158.804,S,11549.072,E,0.00,0.00,070415,,*1B
$GPGGA,031439.000,3158.804,S,11549.072,E,1,00,0.0,0.000,M,0.0,M,,*73
$GPGSA,A,3,,,,,,,,,,,,,0.0,0.0,0.0*32
$GPRMC,031439.000,A,3158.804,S,11549.072,E,0.00,0.00,070415,,*1B
$GPGGA,031439.000,3158.804,S,11549.072,E,1,00,0.0,0.000,M,0.0,M,,*73
$GPGSA,A,3,,,,,,,,,,,,,0.0,0.0,0.0*32
$GPRMC,031439.000,A,3158.804,S,11549.072,E,0.00,0.00,070415,,*1B
$GPGGA,031439.000,3158.804,S,11549.072,E,1,00,0.0,0.000,M,0.0,M,,*73
$GPGSA,A,3,,,,,,,,,,,,,0.0,0.0,0.0*32
$GPRMC,031439.000,A,3158.805,S,11549.072,E,0.00,0.00,070415,,*1A
$GPGGA,031439.000,3158.805,S,11549.072,E,1,00,0.0,0.000,M,0.0,M,,*72
$GPGSA,A,3,,,,,,,,,,,,,0.0,0.0,0.0*32
$GPRMC,031439.000,A,3158.805,S,11549.072,E,0.00,0.00,070415,,*1A
$GPGGA,031439.000,3158.805,S,11549.072,E,1,00,0.0,0.000,M,0.0,M,,*72
$GPGSA,A,3,,,,,,,,,,,,,0.0,0.0,0.0*32
$GPRMC,031440.000,A,3158.805,S,11549.072,E,0.00,0.00,070415,,*14
$GPGGA,031440.000,3158.805,S,11549.072,E,1,00,0.0,0.000,M,0.0,M,,*7C
$GPGSA,A,3,,,,,,,,,,,,,0.0,0.0,0.0*32
$GPRMC,031440.000,A,3158.805,S,11549.072,E,0.00,0.00,070415,,*14
$GPGGA,031440.000,3158.805,S,11549.072,E,1,00,0.0,0.000,M,0.0,M,,*7C
$GPGSA,A,3,,,,,,,,,,,,,0.0,0.0,0.0*32
$GPRMC,031440.000,A,3158.805,S,11549.071,E,0.00,0.00,070415,,*17
$GPGGA,031440.000,3158.805,S,11549.071,E,1,00,0.0,0.000,M,0.0,M,,*7F
$GPGSA,A,3,,,,,,,,,,,,,0.0,0.0,0.0*32
$GPRMC,031440.000,A,3158.805,S,11549.071,E,0.00,0.00,070415,,*17
$GPGGA,031440.000,3158.805,S,11549.071,E,1,00,0.0,0.000,M,0.0,M,,*7F
$GPGSA,A,3,,,,,,,,,,,,,0.0,0.0,0.0*32
$GPRMC,031440.000,A,3158.805,S,11549.071,E,0.00,0.00,070415,,*17
$GPGGA,031440.000,3158.805,S,11549.071,E,1,00,0.0,0.000,M,0.0,M,,*7F
$GPGSA,A,3,,,,,,,,,,,,,0.0,0.0,0.0*32
$GPRMC,031441.000,A,3158.806,S,11549.071,E,0.00,0.00,070415,,*15
$GPGGA,031441.000,3158.806,S,11549.071,E,1,00,0.0,0.000,M,0.0,M,,*7D
$GPGSA,A,3,,,,,,,,,,,,,0.0,0.0,0.0*32
$GPRMC,031441.000,A,3158.806,S,11549.071,E,0.00,0.00,070415,,*15
$GPGGA,031441.000,3158.806,S,11549.071,E,1,00,0.0,0.000,M,0.0,M,,*7D
$GPGSA,A,3,,,,,,,,,,,,,0.0,0.0,0.0*32
$GPRMC,031441.000,A,3158.806,S,11549.071,E,0.00,0.00,070415,,*15
$GPGGA,031441.000,3158.806,S,11549.071,E,1,00,0.0,0.000,M,0.0,M,,*7D
$GPGSA,A,3,,,,,,,,,,,,,0.0,0.0,0.0*32
$GPRMC,031441.000,A,3158.806,S,11549.071,E,0.00,0.00,070415,,*15
$GPGGA,031441.000,3158.806,S,11549.071,E,1,00,0.0,0.000,M,0.0,M,,*7D
$GPGSA,A,3,,,,,,,,,,,,,0.0,0.0,0.0*32
$GPRMC,031441.000,A,3158.806,S,11549.071,E,0.00,0.00,070415,,*15
$GPGGA,031441.000,3158.806,S,11549.071,E,1,00,0.0,0.000,M,0.0,M,,*7D
$GPGSA,A,3,,,,,,,,,,,,,0.0,0.0,0.0*32
$GPRMC,031442.000,A,3158.806,S,11549.071,E,0.00,0.00,070415,,*16
$GPGGA,031442.000,3158.806,S,11549.071,E,1,00,0.0,0.000,M,0.0,M,,*7E
$GPGSA,A,3,,,,,,,,,,,,,0.0,0.0,0.0*32
$GPRMC,031442.000,A,3158.807,S,11549.071,E,0.00,0.00,070415,,*17
$GPGGA,031442.000,3158.807,S,11549.071,E,1,00,0.0,0.000,M,0.0,M,,*7F
$GPGSA,A,3,,,,,,,,,,,,,0.0,0.0,0.0*32
$GPRMC,031442.000,A,3158.807,S,11549.071,E,0.00,0.00,070415,,*17
$GPGGA,031442.000,3158.807,S,11549.071,E,1,00,0.0,0.000,M,0.0,M,,*7F
$GPGSA,A,3,,,,,,,,,,,,,0.0,0.0,0.0*32
$GPRMC,031442.000,A,3158.807,S,11549.071,E,0.00,0.00,070415,,*17
$GPGGA,031442.000,3158.807,S,11549.071,E,1,00,0.0,0.000,M,0.0,M,,*7F
$GPGSA,A,3,,,,,,,,,,,,,0.0,0.0,0.0*32
$GPRMC,031442.000,A,3158.807,S,11549.071,E,0.00,0.00,070415,,*17
$GPGGA,031442.000,3158.807,S,11549.071,E,1,00,0.0,0.000,M,0.0,M,,*7F
$GPGSA,A,3,,,,,,,,,,,,,0.0,0.0,0.0*32
$GPRMC,031443.000,A,3158.807,S,11549.070,E,0.00,0.00,070415,,*17
$GPGGA,031443.000,3158.807,S,11549.070,E,1,00,0.0,0.000,M,0.0,M,,*7F
$GPGSA,A,3,,,,,,,,,,,,,0.0,0.0,0.0*32
$GPRMC,031443.000,A,3158.808,S,11549.070,E,0.00,0.00,070415,,*18
$GPGGA,031443.000,3158.808,S,11549.070,E,1,00,0.0,0.000,M,0.0,M,,*70
$GPGSA,A,3,,,,,,,,,,,,,0.0,0.0,0.0*32
$GPRMC,031443.000,A,3158.808,S,11549.070,E,0.00,0.00,070415,,*18
$GPGGA,031443.000,3158.808,S,11549.070,E,1,00,0.0,0.000,M,0.0,M,,*70
$GPGSA,A,3,,,,,,,,,,,,,0.0,0.0,0.0*32
$GPRMC,031443.000,A,3158.808,S,11549.070,E,0.00,0.00,070415,,*18
$GPGGA,031443.000,3158.808,S,11549.070,E,1,00,0.0,0.000,M,0.0,M,,*70
$GPGSA,A,3,,,,,,,,,,,,,0.0,0.0,0.0*32
$GPRMC,031443.000,A,3158.809,S,11549.070,E,0.00,0.00,070415,,*19
$GPGGA,031443.000,3158.809,S,11549.070,E,1,00,0.0,0.000,M,0.0,M,,*71
$GPGSA,A,3,,,,,,,,,,,,,0.0,0.0,0.0*32
$GPRMC,031444.000,A,3158.809,S,11549.070,E,0.00,0.00,070415,,*1E
$GPGGA,031444.000,3158.809,S,11549.070,E,1,00,0.0,0.000,M,0.0,M,,*76
$GPGSA,A,3,,,,,,,,,,,,,0.0,0.0,0.0*32
$GPRMC,031444.000,A,3158.809,S,11549.070,E,0.00,0.00,070415,,*1E
$GPGGA,031444.000,3158.809,S,11549.070,E,1,00,0.0,0.000,M,0.0,M,,*76
$GPGSA,A,3,,,,,,,,,,,,,0.0,0.0,0.0*32
$GPRMC,031444.000,A,3158.810,S,11549.070,E,0.00,0.00,070415,,*16
$GPGGA,031444.000,3158.810,S,11549.070,E,1,00,0.0,0.000,M,0.0,M,,*7E
$GPGSA,A,3,,,,,,,,,,,,,0.0,0.0,0.0*32
$GPRMC,031444.000,A,3158.810,S,11549.070,E,0.00,0.00,070415,,*16
$GPGGA,031444.000,3158.810,S,11549.070,E,1,00,0.0,0.000,M,0.0,M,,*7E
$GPGSA,A,3,,,,,,,,,,,,,0.0,0.0,0.0*32
$GPRMC,031445.000,A,3158.810,S,11549.070,E,0.00,0.00,070415,,*17
$GPGGA,031445.000,3158.810,S,11549.070,E,1,00,0.0,0.000,M,0.0,M,,*7F
$GPGSA,A,3,,,,,,,,,,,,,0.0,0.0,0.0*32
$GPRMC,031445.000,A,3158.811,S,11549.070,E,0.00,0.00,070415,,*16
$GPGGA,031445.000,3158.811,S,11549.070,E,1,00,0.0,0.000,M,0.0,M,,*7E
$GPGSA,A,3,,,,,,,,,,,,,0.0,0.0,0.0*32
$GPRMC,031445.000,A,3158.811,S,11549.070,E,0.00,0.00,070415,,*16
$GPGGA,031445.000,3158.811,S,11549.070,E,1,00,0.0,0.000,M,0.0,M,,*7E
$GPGSA,A,3,,,,,,,,,,,,,0.0,0.0,0.0*32
$GPRMC,031445.000,A,3158.811,S,11549.070,E,0.00,0.00,070415,,*16
$GPGGA,031445.000,3158.811,S,11549.070,E,1,00,0.0,0.000,M,0.0,M,,*7E
$GPGSA,A,3,,,,,,,,,,,,,0.0,0.0,0.0*32
$GPRMC,031445.000,A,3158.811,S,11549.070,E,0.00,0.00,070415,,*16
$GPGGA,031445.000,3158.811,S,11549.070,E,1,00,0.0,0.000,M,0.0,M,,*7E
$GPGSA,A,3,,,,,,,,,,,,,0.0,0.0,0.0*32
$GPRMC,031446.000,A,3158.811,S,11549.070,E,0.00,0.00,070415,,*15
$GPGGA,031446.000,3158.811,S,11549.070,E,1,00,0.0,0.000,M,0.0,M,,*7D
$GPGSA,A,3,,,,,,,,,,,,,0.0,0.0,0.0*32
$GPRMC,031446.000,A,3158.812,S,11549.070,E,0.00,0.00,070415,,*16
$GPGGA,031446.000,3158.812,S,11549.070,E,1,00,0.0,0.000,M,0.0,M,,*7E
$GPGSA,A,3,,,,,,,,,,,,,0.0,0.0,0.0*32
$GPRMC,031446.000,A,3158.812,S,11549.070,E,0.00,0.00,070415,,*16
$GPGGA,031446.000,3158.812,S,11549.070,E,1,00,0.0,0.000,M,0.0,M,,*7E
$GPGSA,A,3,,,,,,,,,,,,,0.0,0.0,0.0*32
$GPRMC,031446.000,A,3158.812,S,11549.071,E,0.00,0.00,070415,,*17
$GPGGA,031446.000,3158.812,S,11549.071,E,1,00,0.0,0.000,M,0.0,M,,*7F
$GPGSA,A,3,,,,,,,,,,,,,0.0,0.0,0.0*32
$GPRMC,031446.000,A,3158.812,S,11549.071,E,0.00,0.00,070415,,*17
$GPGGA,031446.000,3158.812,S,11549.071,E,1,00,0.0,0.000,M,0.0,M,,*7F
$GPGSA,A,3,,,,,,,,,,,,,0.0,0.0,0.0*32
$GPRMC,031447.000,A,3158.812,S,11549.071,E,0.00,0.00,070415,,*16
$GPGGA,031447.000,3158.812,S,11549.071,E,1,00,0.0,0.000,M,0.0,M,,*7E
$GPGSA,A,3,,,,,,,,,,,,,0.0,0.0,0.0*32
$GPRMC,031447.000,A,3158.812,S,11549.071,E,0.00,0.00,070415,,*16
$GPGGA,031447.000,3158.812,S,11549.071,E,1,00,0.0,0.000,M,0.0,M,,*7E
$GPGSA,A,3,,,,,,,,,,,,,0.0,0.0,0.0*32
$GPRMC,031447.000,A,3158.812,S,11549.071,E,0.00,0.00,070415,,*16
$GPGGA,031447.000,3158.812,S,11549.071,E,1,00,0.0,0.000,M,0.0,M,,*7E
$GPGSA,A,3,,,,,,,,,,,,,0.0,0.0,0.0*32
$GPRMC,031447.000,A,3158.813,S,11549.071,E,0.00,0.00,070415,,*17
$GPGGA,031447.000,3158.813,S,11549.071,E,1,00,0.0,0.000,M,0.0,M,,*7F
$GPGSA,A,3,,,,,,,,,,,,,0.0,0.0,0.0*32
$GPRMC,031447.000,A,3158.813,S,11549.072,E,0.00,0.00,070415,,*14
$GPGGA,031447.000,3158.813,S,11549.072,E,1,00,0.0,0.000,M,0.0,M,,*7C
$GPGSA,A,3,,,,,,,,,,,,,0.0,0.0,0.0*32
$GPRMC,031448.000,A,3158.813,S,11549.072,E,0.00,0.00,070415,,*1B
$GPGGA,031448.000,3158.813,S,11549.072,E,1,00,0.0,0.000,M,0.0,M,,*73
$GPGSA,A,3,,,,,,,,,,,,,0.0,0.0,0.0*32
$GPRMC,031448.000,A,3158.813,S,11549.072,E,0.00,0.00,070415,,*1B
$GPGGA,031448.000,3158.813,S,11549.072,E,1,00,0.0,0.000,M,0.0,M,,*73
$GPGSA,A,3,,,,,,,,,,,,,0.0,0.0,0.0*32
$GPRMC,031448.000,A,3158.813,S,11549.072,E,0.00,0.00,070415,,*1B
$GPGGA,031448.000,3158.813,S,11549.072,E,1,00,0.0,0.000,M,0.0,M,,*73
$GPGSA,A,3,,,,,,,,,,,,,0.0,0.0,0.0*32
$GPRMC,031448.000,A,3158.813,S,11549.072,E,0.00,0.00,070415,,*1B
$GPGGA,031448.000,3158.813,S,11549.072,E,1,00,0.0,0.000,M,0.0,M,,*73
$GPGSA,A,3,,,,,,,,,,,,,0.0,0.0,0.0*32
$GPRMC,031449.000,A,3158.813,S,11549.073,E,0.00,0.00,070415,,*1B
$GPGGA,031449.000,3158.813,S,11549.073,E,1,00,0.0,0.000,M,0.0,M,,*73
$GPGSA,A,3,,,,,,,,,,,,,0.0,0.0,0.0*32
$GPRMC,031449.000,A,3158.813,S,11549.073,E,0.00,0.00,070415,,*1B
$GPGGA,031449.000,3158.813,S,11549.073,E,1,00,0.0,0.000,M,0.0,M,,*73
$GPGSA,A,3,,,,,,,,,,,,,0.0,0.0,0.0*32
$GPRMC,031449.000,A,3158.813,S,11549.073,E,0.00,0.00,070415,,*1B
$GPGGA,031449.000,3158.813,S,11549.073,E,1,00,0.0,0.000,M,0.0,M,,*73
$GPGSA,A,3,,,,,,,,,,,,,0.0,0.0,0.0*32
$GPRMC,031449.000,A,3158.813,S,11549.073,E,0.00,0.00,070415,,*1B
$GPGGA,031449.000,3158.813,S,11549.073,E,1,00,0.0,0.000,M,0.0,M,,*73
$GPGSA,A,3,,,,,,,,,,,,,0.0,0.0,0.0*32
$GPRMC,031449.000,A,3158.813,S,11549.074,E,0.00,0.00,070415,,*1C
$GPGGA,031449.000,3158.813,S,11549.074,E,1,00,0.0,0.000,M,0.0,M,,*74
$GPGSA,A,3,,,,,,,,,,,,,0.0,0.0,0.0*32
$GPRMC,031450.000,A,3158.813,S,11549.074,E,0.00,0.00,070415,,*14
$GPGGA,031450.000,3158.813,S,11549.074,E,1,00,0.0,0.000,M,0.0,M,,*7C
$GPGSA,A,3,,,,,,,,,,,,,0.0,0.0,0.0*32
$GPRMC,031450.000,A,3158.813,S,11549.074,E,0.00,0.00,070415,,*14
$GPGGA,031450.000,3158.813,S,11549.074,E,1,00,0.0,0.000,M,0.0,M,,*7C
$GPGSA,A,3,,,,,,,,,,,,,0.0,0.0,0.0*32
$GPRMC,031450.000,A,3158.813,S,11549.074,E,0.00,0.00,070415,,*14
$GPGGA,031450.000,3158.813,S,11549.074,E,1,00,0.0,0.000,M,0.0,M,,*7C
$GPGSA,A,3,,,,,,,,,,,,,0.0,0.0,0.0*32
$GPRMC,031450.000,A,3158.813,S,11549.074,E,0.00,0.00,070415,,*14
$GPGGA,031450.000,3158.813,S,11549.074,E,1,00,0.0,0.000,M,0.0,M,,*7C
$GPGSA,A,3,,,,,,,,,,,,,0.0,0.0,0.0*32
$GPRMC,031450.000,A,3158.812,S,11549.074,E,0.00,0.00,070415,,*15
$GPGGA,031450.000,3158.812,S,11549.074,E,1,00,0.0,0.000,M,0.0,M,,*7D
$GPGSA,A,3,,,,,,,,,,,,,0.0,0.0,0.0*32
$GPRMC,031451.000,A,3158.812,S,11549.075,E,0.00,0.00,070415,,*15
$GPGGA,031451.000,3158.812,S,11549.075,E,1,00,0.0,0.000,M,0.0,M,,*7D
$GPGSA,A,3,,,,,,,,,,,,,0.0,0.0,0.0*32
$GPRMC,031451.000,A,3158.812,S,11549.075,E,0.00,0.00,070415,,*15
$GPGGA,031451.000,3158.812,S,11549.075,E,1,00,0.0,0.000,M,0.0,M,,*7D
$GPGSA,A,3,,,,,,,,,,,,,0.0,0.0,0.0*32
$GPRMC,031451.000,A,3158.812,S,11549.075,E,0.00,0.00,070415,,*15
$GPGGA,031451.000,3158.812,S,11549.075,E,1,00,0.0,0.000,M,0.0,M,,*7D
$GPGSA,A,3,,,,,,,,,,,,,0.0,0.0,0.0*32
$GPRMC,031451.000,A,3158.812,S,11549.075,E,0.00,0.00,070415,,*15
$GPGGA,031451.000,3158.812,S,11549.075,E,1,00,0.0,0.000,M,0.0,M,,*7D
$GPGSA,A,3,,,,,,,,,,,,,0.0,0.0,0.0*32
$GPRMC,031451.000,A,3158.812,S,11549.075,E,0.00,0.00,070415,,*15
$GPGGA,031451.000,3158.812,S,11549.075,E,1,00,0.0,0.000,M,0.0,M,,*7D
$GPGSA,A,3,,,,,,,,,,,,,0.0,0.0,0.0*32
$GPRMC,031452.000,A,3158.812,S,11549.075,E,0.00,0.00,070415,,*16
$GPGGA,031452.000,3158.812,S,11549.075,E,1,00,0.0,0.000,M,0.0,M,,*7E
$GPGSA,A,3,,,,,,,,,,,,,0.0,0.0,0.0*32
$GPRMC,031452.000,A,3158.812,S,11549.076,E,0.00,0.00,070415,,*15
$GPGGA,031452.000,3158.812,S,11549.076,E,1,00,0.0,0.000,M,0.0,M,,*7D
$GPGSA,A,3,,,,,,,,,,,,,0.0,0.0,0.0*32
$GPRMC,031452.000,A,3158.812,S,11549.076,E,0.00,0.00,070415,,*15
$GPGGA,031452.000,3158.812,S,11549.076,E,1,00,0.0,0.000,M,0.0,M,,*7D
$GPGSA,A,3,,,,,,,,,,,,,0.0,0.0,0.0*32
$GPRMC,031452.000,A,3158.812,S,11549.076,E,0.00,0.00,070415,,*15
$GPGGA,031452.000,3158.812,S,11549.076,E,1,00,0.0,0.000,M,0.0,M,,*7D
$GPGSA,A,3,,,,,,,,,,,,,0.0,0.0,0.0*32
$GPRMC,031453.000,A,3158.812,S,11549.076,E,0.00,0.00,070415,,*14
$GPGGA,031453.000,3158.812,S,11549.076,E,1,00,0.0,0.000,M,0.0,M,,*7C
$GPGSA,A,3,,,,,,,,,,,,,0.0,0.0,0.0*32
$GPRMC,031453.000,A,3158.811,S,11549.076,E,0.00,0.00,070415,,*17
$GPGGA,031453.000,3158.811,S,11549.076,E,1,00,0.0,0.000,M,0.0,M,,*7F
$GPGSA,A,3,,,,,,,,,,,,,0.0,0.0,0.0*32
$GPRMC,031453.000,A,3158.811,S,11549.076,E,0.00,0.00,070415,,*17
$GPGGA,031453.000,3158.811,S,11549.076,E,1,00,0.0,0.000,M,0.0,M,,*7F
$GPGSA,A,3,,,,,,,,,,,,,0.0,0.0,0.0*32
$GPRMC,031453.000,A,3158.811,S,11549.076,E,0.00,0.00,070415,,*17
$GPGGA,031453.000,3158.811,S,11549.076,E,1,00,0.0,0.000,M,0.0,M,,*7F
$GPGSA,A,3,,,,,,,,,,,,,0.0,0.0,0.0*32
$GPRMC,031453.000,A,3158.811,S,11549.077,E,0.00,0.00,070415,,*16
$GPGGA,031453.000,3158.811,S,11549.077,E,1,00,0.0,0.000,M,0.0,M,,*7E
$GPGSA,A,3,,,,,,,,,,,,,0.0,0.0,0.0*32
$GPRMC,031454.000,A,3158.811,S,11549.077,E,0.00,0.00,070415,,*11
$GPGGA,031454.000,3158.811,S,11549.077,E,1,00,0.0,0.000,M,0.0,M,,*79
$GPGSA,A,3,,,,,,,,,,,,,0.0,0.0,0.0*32
$GPRMC,031454.000,A,3158.811,S,11549.077,E,0.00,0.00,070415,,*11
$GPGGA,031454.000,3158.811,S,11549.077,E,1,00,0.0,0.000,M,0.0,M,,*79
$GPGSA,A,3,,,,,,,,,,,,,0.0,0.0,0.0*32
$GPRMC,031454.000,A,3158.811,S,11549.077,E,0.00,0.00,070415,,*11
$GPGGA,031454.000,3158.811,S,11549.077,E,1,00,0.0,0.000,M,0.0,M,,*79
$GPGSA,A,3,,,,,,,,,,,,,0.0,0.0,0.0*32
$GPRMC,031454.000,A,3158.811,S,11549.077,E,0.00,0.00,070415,,*11
$GPGGA,031454.000,3158.811,S,11549.077,E,1,00,0.0,0.000,M,0.0,M,,*79
$GPGSA,A,3,,,,,,,,,,,,,0.0,0.0,0.0*32
$GPRMC,031454.000,A,3158.811,S,11549.077,E,0.00,0.00,070415,,*11
$GPGGA,031454.000,3158.811,S,11549.077,E,1,00,0.0,0.000,M,0.0,M,,*79
$GPGSA,A,3,,,,,,,,,,,,,0.0,0.0,0.0*32
$GPRMC,031455.000,A,3158.811,S,11549.077,E,0.00,0.00,070415,,*10
$GPGGA,031455.000,3158.811,S,11549.077,E,1,00,0.0,0.000,M,0.0,M,,*78
$GPGSA,A,3,,,,,,,,,,,,,0.0,0.0,0.0*32
$GPRMC,031455.000,A,3158.811,S,11549.077,E,0.00,0.00,070415,,*10
$GPGGA,031455.000,3158.811,S,11549.077,E,1,00,0.0,0.000,M,0.0,M,,*78
$GPGSA,A,3,,,,,,,,,,,,,0.0,0.0,0.0*32
$GPRMC,031455.000,A,3158.810,S,11549.078,E,0.00,0.00,070415,,*1E
$GPGGA,031455.000,3158.810,S,11549.078,E,1,00,0.0,0.000,M,0.0,M,,*76
$GPGSA,A,3,,,,,,,,,,,,,0.0,0.0,0.0*32
$GPRMC,031455.000,A,3158.810,S,11549.078,E,0.00,0.00,070415,,*1E
$GPGGA,031455.000,3158.810,S,11549.078,E,1,00,0.0,0.000,M,0.0,M,,*76
$GPGSA,A,3,,,,,,,,,,,,,0.0,0.0,0.0*32
$GPRMC,031455.000,A,3158.810,S,11549.078,E,0.00,0.00,070415,,*1E
$GPGGA,031455.000,3158.810,S,11549.078,E,1,00,0.0,0.000,M,0.0,M,,*76
$GPGSA,A,3,,,,,,,,,,,,,0.0,0.0,0.0*32
$GPRMC,031456.000,A,3158.810,S,11549.078,E,0.00,0.00,070415,,*1D
$GPGGA,031456.000,3158.810,S,11549.078,E,1,00,0.0,0.000,M,0.0,M,,*75
$GPGSA,A,3,,,,,,,,,,,,,0.0,0.0,0.0*32
$GPRMC,031456.000,A,3158.810,S,11549.079,E,0.00,0.00,070415,,*1C
$GPGGA,031456.000,3158.810,S,11549.079,E,1,00,0.0,0.000,M,0.0,M,,*74
$GPGSA,A,3,,,,,,,,,,,,,0.0,0.0,0.0*32
$GPRMC,031456.000,A,3158.810,S,11549.079,E,0.00,0.00,070415,,*1C
$GPGGA,031456.000,3158.810,S,11549.079,E,1,00,0.0,0.000,M,0.0,M,,*74
$GPGSA,A,3,,,,,,,,,,,,,0.0,0.0,0.0*32
$GPRMC,031456.000,A,3158.810,S,11549.079,E,0.00,0.00,070415,,*1C
$GPGGA,031456.000,3158.810,S,11549.079,E,1,00,0.0,0.000,M,0.0,M,,*74
$GPGSA,A,3,,,,,,,,,,,,,0.0,0.0,0.0*32
$GPRMC,031457.000,A,3158.810,S,11549.079,E,0.00,0.00,070415,,*1D
$GPGGA,031457.000,3158.810,S,11549.079,E,1,00,0.0,0.000,M,0.0,M,,*75
$GPGSA,A,3,,,,,,,,,,,,,0.0,0.0,0.0*32
$GPRMC,031457.000,A,3158.810,S,11549.079,E,0.00,0.00,070415,,*1D
$GPGGA,031457.000,3158.810,S,11549.079,E,1,00,0.0,0.000,M,0.0,M,,*75
$GPGSA,A,3,,,,,,,,,,,,,0.0,0.0,0.0*32
$GPRMC,031457.000,A,3158.810,S,11549.079,E,0.00,0.00,070415,,*1D
$GPGGA,031457.000,3158.810,S,11549.079,E,1,00,0.0,0.000,M,0.0,M,,*75
$GPGSA,A,3,,,,,,,,,,,,,0.0,0.0,0.0*32
$GPRMC,031457.000,A,3158.809,S,11549.079,E,0.00,0.00,070415,,*15
$GPGGA,031457.000,3158.809,S,11549.079,E,1,00,0.0,0.000,M,0.0,M,,*7D
$GPGSA,A,3,,,,,,,,,,,,,0.0,0.0,0.0*32
$GPRMC,031457.000,A,3158.809,S,11549.079,E,0.00,0.00,070415,,*15
$GPGGA,031457.000,3158.809,S,11549.079,E,1,00,0.0,0.000,M,0.0,M,,*7D
$GPGSA,A,3,,,,,,,,,,,,,0.0,0.0,0.0*32
$GPRMC,031458.000,A,3158.809,S,11549.080,E,0.00,0.00,070415,,*1C
$GPGGA,031458.000,3158.809,S,11549.080,E,1,00,0.0,0.000,M,0.0,M,,*74
$GPGSA,A,3,,,,,,,,,,,,,0.0,0.0,0.0*32
$GPRMC,031458.000,A,3158.809,S,11549.080,E,0.00,0.00,070415,,*1C
$GPGGA,031458.000,3158.809,S,11549.080,E,1,00,0.0,0.000,M,0.0,M,,*74
$GPGSA,A,3,,,,,,,,,,,,,0.0,0.0,0.0*32
$GPRMC,031458.000,A,3158.809,S,11549.080,E,0.00,0.00,070415,,*1C
$GPGGA,031458.000,3158.809,S,11549.080,E,1,00,0.0,0.000,M,0.0,M,,*74
$GPGSA,A,3,,,,,,,,,,,,,0.0,0.0,0.0*32
$GPRMC,031458.000,A,3158.809,S,11549.080,E,0.00,0.00,070415,,*1C
$GPGGA,031458.000,3158.809,S,11549.080,E,1,00,0.0,0.000,M,0.0,M,,*74
$GPGSA,A,3,,,,,,,,,,,,,0.0,0.0,0.0*32
$GPRMC,031458.000,A,3158.809,S,11549.080,E,0.00,0.00,070415,,*1C
$GPGGA,031458.000,3158.809,S,11549.080,E,1,00,0.0,0.000,M,0.0,M,,*74
$GPGSA,A,3,,,,,,,,,,,,,0.0,0.0,0.0*32
$GPRMC,031459.000,A,3158.808,S,11549.080,E,0.00,0.00,070415,,*1C
$GPGGA,031459.000,3158.808,S,11549.080,E,1,00,0.0,0.000,M,0.0,M,,*74
$GPGSA,A,3,,,,,,,,,,,,,0.0,0.0,0.0*32
$GPRMC,031459.000,A,3158.808,S,11549.080,E,0.00,0.00,070415,,*1C
$GPGGA,031459.000,3158.808,S,11549.080,E,1,00,0.0,0.000,M,0.0,M,,*74
$GPGSA,A,3,,,,,,,,,,,,,0.0,0.0,0.0*32
$GPRMC,031459.000,A,3158.808,S,11549.080,E,0.00,0.00,070415,,*1C
$GPGGA,031459.000,3158.808,S,11549.080,E,1,00,0.0,0.000,M,0.0,M,,*74
$GPGSA,A,3,,,,,,,,,,,,,0.0,0.0,0.0*32
$GPRMC,031459.000,A,3158.808,S,11549.080,E,0.00,0.00,070415,,*1C
$GPGGA,031459.000,3158.808,S,11549.080,E,1,00,0.0,0.000,M,0.0,M,,*74
$GPGSA,A,3,,,,,,,,,,,,,0.0,0.0,0.0*32
$GPRMC,031500.000,A,3158.807,S,11549.080,E,0.00,0.00,070415,,*1E
$GPGGA,031500.000,3158.807,S,11549.080,E,1,00,0.0,0.000,M,0.0,M,,*76
$GPGSA,A,3,,,,,,,,,,,,,0.0,0.0,0.0*32
$GPRMC,031500.000,A,3158.807,S,11549.080,E,0.00,0.00,070415,,*1E
$GPGGA,031500.000,3158.807,S,11549.080,E,1,00,0.0,0.000,M,0.0,M,,*76
$GPGSA,A,3,,,,,,,,,,,,,0.0,0.0,0.0*32
$GPRMC,031500.000,A,3158.807,S,11549.080,E,0.00,0.00,070415,,*1E
$GPGGA,031500.000,3158.807,S,11549.080,E,1,00,0.0,0.000,M,0.0,M,,*76
$GPGSA,A,3,,,,,,,,,,,,,0.0,0.0,0.0*32
$GPRMC,031500.000,A,3158.807,S,11549.080,E,0.00,0.00,070415,,*1E
$GPGGA,031500.000,3158.807,S,11549.080,E,1,00,0.0,0.000,M,0.0,M,,*76
$GPGSA,A,3,,,,,,,,,,,,,0.0,0.0,0.0*32
$GPRMC,031500.000,A,3158.806,S,11549.080,E,0.00,0.00,070415,,*1F
$GPGGA,031500.000,3158.806,S,11549.080,E,1,00,0.0,0.000,M,0.0,M,,*77
$GPGSA,A,3,,,,,,,,,,,,,0.0,0.0,0.0*32
$GPRMC,031501.000,A,3158.806,S,11549.081,E,0.00,0.00,070415,,*1F
$GPGGA,031501.000,3158.806,S,11549.081,E,1,00,0.0,0.000,M,0.0,M,,*77
$GPGSA,A,3,,,,,,,,,,,,,0.0,0.0,0.0*32
$GPRMC,031501.000,A,3158.806,S,11549.081,E,0.00,0.00,070415,,*1F
$GPGGA,031501.000,3158.806,S,11549.081,E,1,00,0.0,0.000,M,0.0,M,,*77
$GPGSA,A,3,,,,,,,,,,,,,0.0,0.0,0.0*32
$GPRMC,031501.000,A,3158.806,S,11549.081,E,0.00,0.00,070415,,*1F
$GPGGA,031501.000,3158.806,S,11549.081,E,1,00,0.0,0.000,M,0.0,M,,*77
$GPGSA,A,3,,,,,,,,,,,,,0.0,0.0,0.0*32
$GPRMC,031501.000,A,3158.805,S,11549.081,E,0.00,0.00,070415,,*1C
$GPGGA,031501.000,3158.805,S,11549.081,E,1,00,0.0,0.000,M,0.0,M,,*74
$GPGSA,A,3,,,,,,,,,,,,,0.0,0.0,0.0*32
$GPRMC,031501.000,A,3158.805,S,11549.081,E,0.00,0.00,070415,,*1C
$GPGGA,031501.000,3158.805,S,11549.081,E,1,00,0.0,0.000,M,0.0,M,,*74
$GPGSA,A,3,,,,,,,,,,,,,0.0,0.0,0.0*32
$GPRMC,031502.000,A,3158.805,S,11549.081,E,0.00,0.00,070415,,*1F
$GPGGA,031502.000,3158.805,S,11549.081,E,1,00,0.0,0.000,M,0.0,M,,*77
$GPGSA,A,3,,,,,,,,,,,,,0.0,0.0,0.0*32
$GPRMC,031502.000,A,3158.805,S,11549.081,E,0.00,0.00,070415,,*1F
$GPGGA,031502.000,3158.805,S,11549.081,E,1,00,0.0,0.000,M,0.0,M,,*77
$GPGSA,A,3,,,,,,,,,,,,,0.0,0.0,0.0*32
$GPRMC,031502.000,A,3158.804,S,11549.081,E,0.00,0.00,070415,,*1E
$GPGGA,031502.000,3158.804,S,11549.081,E,1,00,0.0,0.000,M,0.0,M,,*76
$GPGSA,A,3,,,,,,,,,,,,,0.0,0.0,0.0*32
$GPRMC,031502.000,A,3158.804,S,11549.081,E,0.00,0.00,070415,,*1E
$GPGGA,031502.000,3158.804,S,11549.081,E,1,00,0.0,0.000,M,0.0,M,,*76
$GPGSA,A,3,,,,,,,,,,,,,0.0,0.0,0.0*32
$GPRMC,031502.000,A,3158.804,S,11549.081,E,0.00,0.00,070415,,*1E
$GPGGA,031502.000,3158.804,S,11549.081,E,1,00,0.0,0.000,M,0.0,M,,*76
$GPGSA,A,3,,,,,,,,,,,,,0.0,0.0,0.0*32
$GPRMC,031503.000,A,3158.804,S,11549.080,E,0.00,0.00,070415,,*1E
$GPGGA,031503.000,3158.804,S,11549.080,E,1,00,0.0,0.000,M,0.0,M,,*76
$GPGSA,A,3,,,,,,,,,,,,,0.0,0.0,0.0*32
$GPRMC,031503.000,A,3158.803,S,11549.080,E,0.00,0.00,070415,,*19
$GPGGA,031503.000,3158.803,S,11549.080,E,1,00,0.0,0.000,M,0.0,M,,*71
$GPGSA,A,3,,,,,,,,,,,,,0.0,0.0,0.0*32
$GPRMC,031503.000,A,3158.803,S,11549.080,E,0.00,0.00,070415,,*19
$GPGGA,031503.000,3158.803,S,11549.080,E,1,00,0.0,0.000,M,0.0,M,,*71
$GPGSA,A,3,,,,,,,,,,,,,0.0,0.0,0.0*32
$GPRMC,031503.000,A,3158.803,S,11549.080,E,0.00,0.00,070415,,*19
$GPGGA,031503.000,3158.803,S,11549.080,E,1,00,0.0,0.000,M,0.0,M,,*71
$GPGSA,A,3,,,,,,,,,,,,,0.0,0.0,0.0*32
$GPRMC,031504.000,A,3158.802,S,11549.080,E,0.00,0.00,070415,,*1F
$GPGGA,031504.000,3158.802,S,11549.080,E,1,00,0.0,0.000,M,0.0,M,,*77
$GPGSA,A,3,,,,,,,,,,,,,0.0,0.0,0.0*32
$GPRMC,031504.000,A,3158.802,S,11549.080,E,0.00,0.00,070415,,*1F
$GPGGA,031504.000,3158.802,S,11549.080,E,1,00,0.0,0.000,M,0.0,M,,*77
$GPGSA,A,3,,,,,,,,,,,,,0.0,0.0,0.0*32
$GPRMC,031504.000,A,3158.802,S,11549.080,E,0.00,0.00,070415,,*1F
$GPGGA,031504.000,3158.802,S,11549.080,E,1,00,0.0,0.000,M,0.0,M,,*77
$GPGSA,A,3,,,,,,,,,,,,,0.0,0.0,0.0*32
$GPRMC,031504.000,A,3158.802,S,11549.080,E,0.00,0.00,070415,,*1F
$GPGGA,031504.000,3158.802,S,11549.080,E,1,00,0.0,0.000,M,0.0,M,,*77
$GPGSA,A,3,,,,,,,,,,,,,0.0,0.0,0.0*32
$GPRMC,031504.000,A,3158.802,S,11549.080,E,0.00,0.00,070415,,*1F
$GPGGA,031504.000,3158.802,S,11549.080,E,1,00,0.0,0.000,M,0.0,M,,*77
$GPGSA,A,3,,,,,,,,,,,,,0.0,0.0,0.0*32
$GPRMC,031505.000,A,3158.802,S,11549.079,E,0.00,0.00,070415,,*18
$GPGGA,031505.000,3158.802,S,11549.079,E,1,00,0.0,0.000,M,0.0,M,,*70
$GPGSA,A,3,,,,,,,,,,,,,0.0,0.0,0.0*32
$GPRMC,031505.000,A,3158.801,S,11549.079,E,0.00,0.00,070415,,*1B
$GPGGA,031505.000,3158.801,S,11549.079,E,1,00,0.0,0.000,M,0.0,M,,*73
$GPGSA,A,3,,,,,,,,,,,,,0.0,0.0,0.0*32
$GPRMC,031505.000,A,3158.801,S,11549.079,E,0.00,0.00,070415,,*1B
$GPGGA,031505.000,3158.801,S,11549.079,E,1,00,0.0,0.000,M,0.0,M,,*73
$GPGSA,A,3,,,,,,,,,,,,,0.0,0.0,0.0*32
$GPRMC,031505.000,A,3158.801,S,11549.079,E,0.00,0.00,070415,,*1B
$GPGGA,031505.000,3158.801,S,11549.079,E,1,00,0.0,0.000,M,0.0,M,,*73
$GPGSA,A,3,,,,,,,,,,,,,0.0,0.0,0.0*32
$GPRMC,031505.000,A,3158.801,S,11549.079,E,0.00,0.00,070415,,*1B
$GPGGA,031505.000,3158.801,S,11549.079,E,1,00,0.0,0.000,M,0.0,M,,*73
$GPGSA,A,3,,,,,,,,,,,,,0.0,0.0,0.0*32
$GPRMC,031506.000,A,3158.801,S,11549.079,E,0.00,0.00,070415,,*18
$GPGGA,031506.000,3158.801,S,11549.079,E,1,00,0.0,0.000,M,0.0,M,,*70
$GPGSA,A,3,,,,,,,,,,,,,0.0,0.0,0.0*32
$GPRMC,031506.000,A,3158.801,S,11549.079,E,0.00,0.00,070415,,*18
$GPGGA,031506.000,3158.801,S,11549.079,E,1,00,0.0,0.000,M,0.0,M,,*70
$GPGSA,A,3,,,,,,,,,,,,,0.0,0.0,0.0*32
$GPRMC,031506.000,A,3158.801,S,11549.079,E,0.00,0.00,070415,,*18
$GPGGA,031506.000,3158.801,S,11549.079,E,1,00,0.0,0.000,M,0.0,M,,*70
$GPGSA,A,3,,,,,,,,,,,,,0.0,0.0,0.0*32
$GPRMC,031506.000,A,3158.800,S,11549.079,E,0.00,0.00,070415,,*19
$GPGGA,031506.000,3158.800,S,11549.079,E,1,00,0.0,0.000,M,0.0,M,,*71
$GPGSA,A,3,,,,,,,,,,,,,0.0,0.0,0.0*32
$GPRMC,031506.000,A,3158.800,S,11549.079,E,0.00,0.00,070415,,*19
$GPGGA,031506.000,3158.800,S,11549.079,E,1,00,0.0,0.000,M,0.0,M,,*71
$GPGSA,A,3,,,,,,,,,,,,,0.0,0.0,0.0*32
$GPRMC,031507.000,A,3158.800,S,11549.079,E,0.00,0.00,070415,,*18
$GPGGA,031507.000,3158.800,S,11549.079,E,1,00,0.0,0.000,M,0.0,M,,*70
$GPGSA,A,3,,,,,,,,,,,,,0.0,0.0,0.0*32
$GPRMC,031507.000,A,3158.800,S,11549.079,E,0.00,0.00,070415,,*18
$GPGGA,031507.000,3158.800,S,11549.079,E,1,00,0.0,0.000,M,0.0,M,,*70
$GPGSA,A,3,,,,,,,,,,,,,0.0,0.0,0.0*32
$GPRMC,031507.000,A,3158.800,S,11549.079,E,0.00,0.00,070415,,*18
$GPGGA,031507.000,3158.800,S,11549.079,E,1,00,0.0,0.000,M,0.0,M,,*70
$GPGSA,A,3,,,,,,,,,,,,,0.0,0.0,0.0*32
$GPRMC,031507.000,A,3158.800,S,11549.079,E,0.00,0.00,070415,,*18
$GPGGA,031507.000,3158.800,S,11549.079,E,1,00,0.0,0.000,M,0.0,M,,*70
$GPGSA,A,3,,,,,,,,,,,,,0.0,0.0,0.0*32
$GPRMC,031508.000,A,3158.799,S,11549.079,E,0.00,0.00,070415,,*18
$GPGGA,031508.000,3158.799,S,11549.079,E,1,00,0.0,0.000,M,0.0,M,,*70
$GPGSA,A,3,,,,,,,,,,,,,0.0,0.0,0.0*32
$GPRMC,031508.000,A,3158.799,S,11549.079,E,0.00,0.00,070415,,*18
$GPGGA,031508.000,3158.799,S,11549.079,E,1,00,0.0,0.000,M,0.0,M,,*70
$GPGSA,A,3,,,,,,,,,,,,,0.0,0.0,0.0*32
$GPRMC,031508.000,A,3158.799,S,11549.079,E,0.00,0.00,070415,,*18
$GPGGA,031508.000,3158.799,S,11549.079,E,1,00,0.0,0.000,M,0.0,M,,*70
$GPGSA,A,3,,,,,,,,,,,,,0.0,0.0,0.0*32
$GPRMC,031508.000,A,3158.799,S,11549.079,E,0.00,0.00,070415,,*18
$GPGGA,031508.000,3158.799,S,11549.079,E,1,00,0.0,0.000,M,0.0,M,,*70
$GPGSA,A,3,,,,,,,,,,,,,0.0,0.0,0.0*32
$GPRMC,031508.000,A,3158.798,S,11549.079,E,0.00,0.00,070415,,*19
$GPGGA,031508.000,3158.798,S,11549.079,E,1,00,0.0,0.000,M,0.0,M,,*71
$GPGSA,A,3,,,,,,,,,,,,,0.0,0.0,0.0*32
$GPRMC,031509.000,A,3158.798,S,11549.079,E,0.00,0.00,070415,,*18
$GPGGA,031509.000,3158.798,S,11549.079,E,1,00,0.0,0.000,M,0.0,M,,*70
$GPGSA,A,3,,,,,,,,,,,,,0.0,0.0,0.0*32
$GPRMC,031509.000,A,3158.798,S,11549.079,E,0.00,0.00,070415,,*18
$GPGGA,031509.000,3158.798,S,11549.079,E,1,00,0.0,0.000,M,0.0,M,,*70
$GPGSA,A,3,,,,,,,,,,,,,0.0,0.0,0.0*32
$GPRMC,031509.000,A,3158.798,S,11549.079,E,0.00,0.00,070415,,*18
$GPGGA,031509.000,3158.798,S,11549.079,E,1,00,0.0,0.000,M,0.0,M,,*70
$GPGSA,A,3,,,,,,,,,,,,,0.0,0.0,0.0*32
$GPRMC,031509.000,A,3158.798,S,11549.079,E,0.00,0.00,070415,,*18
$GPGGA,031509.000,3158.798,S,11549.079,E,1,00,0.0,0.000,M,0.0,M,,*70
$GPGSA,A,3,,,,,,,,,,,,,0.0,0.0,0.0*32
$GPRMC,031509.000,A,3158.798,S,11549.079,E,0.00,0.00,070415,,*18
$GPGGA,031509.000,3158.798,S,11549.079,E,1,00,0.0,0.000,M,0.0,M,,*70
$GPGSA,A,3,,,,,,,,,,,,,0.0,0.0,0.0*32
$GPRMC,031510.000,A,3158.797,S,11549.079,E,0.00,0.00,070415,,*1F
$GPGGA,031510.000,3158.797,S,11549.079,E,1,00,0.0,0.000,M,0.0,M,,*77
$GPGSA,A,3,,,,,,,,,,,,,0.0,0.0,0.0*32
$GPRMC,031510.000,A,3158.797,S,11549.079,E,0.00,0.00,070415,,*1F
$GPGGA,031510.000,3158.797,S,11549.079,E,1,00,0.0,0.000,M,0.0,M,,*77
$GPGSA,A,3,,,,,,,,,,,,,0.0,0.0,0.0*32
$GPRMC,031510.000,A,3158.797,S,11549.079,E,0.00,0.00,070415,,*1F
$GPGGA,031510.000,3158.797,S,11549.079,E,1,00,0.0,0.000,M,0.0,M,,*77
$GPGSA,A,3,,,,,,,,,,,,,0.0,0.0,0.0*32
$GPRMC,031510.000,A,3158.797,S,11549.079,E,0.00,0.00,070415,,*1F
$GPGGA,031510.000,3158.797,S,11549.079,E,1,00,0.0,0.000,M,0.0,M,,*77
$GPGSA,A,3,,,,,,,,,,,,,0.0,0.0,0.0*32
$GPRMC,031510.000,A,3158.797,S,11549.079,E,0.00,0.00,070415,,*1F
$GPGGA,031510.000,3158.797,S,11549.079,E,1,00,0.0,0.000,M,0.0,M,,*77
$GPGSA,A,3,,,,,,,,,,,,,0.0,0.0,0.0*32
$GPRMC,031511.000,A,3158.797,S,11549.080,E,0.00,0.00,070415,,*18
$GPGGA,031511.000,3158.797,S,11549.080,E,1,00,0.0,0.000,M,0.0,M,,*70
$GPGSA,A,3,,,,,,,,,,,,,0.0,0.0,0.0*32
$GPRMC,031511.000,A,3158.797,S,11549.080,E,0.00,0.00,070415,,*18
$GPGGA,031511.000,3158.797,S,11549.080,E,1,00,0.0,0.000,M,0.0,M,,*70
$GPGSA,A,3,,,,,,,,,,,,,0.0,0.0,0.0*32
$GPRMC,031511.000,A,3158.796,S,11549.080,E,0.00,0.00,070415,,*19
$GPGGA,031511.000,3158.796,S,11549.080,E,1,00,0.0,0.000,M,0.0,M,,*71
$GPGSA,A,3,,,,,,,,,,,,,0.0,0.0,0.0*32
$GPRMC,031511.000,A,3158.796,S,11549.080,E,0.00,0.00,070415,,*19
$GPGGA,031511.000,3158.796,S,11549.080,E,1,00,0.0,0.000,M,0.0,M,,*71
$GPGSA,A,3,,,,,,,,,,,,,0.0,0.0,0.0*32
$GPRMC,031511.000,A,3158.796,S,11549.080,E,0.00,0.00,070415,,*19
$GPGGA,031511.000,3158.796,S,11549.080,E,1,00,0.0,0.000,M,0.0,M,,*71
$GPGSA,A,3,,,,,,,,,,,,,0.0,0.0,0.0*32
$GPRMC,031512.000,A,3158.796,S,11549.080,E,0.00,0.00,070415,,*1A
$GPGGA,031512.000,3158.796,S,11549.080,E,1,00,0.0,0.000,M,0.0,M,,*72
$GPGSA,A,3,,,,,,,,,,,,,0.0,0.0,0.0*32
$GPRMC,030738.000,A,3158.794,S,11549.070,E,0.00,0.00,070415,,*1C
$GPGGA,030738.000,3158.794,S,11549.070,E,1,00,1.2,0.000,M,0.0,M,,*77
$GPGSA,A,3,,,,,,,,,,,,,0.0,1.2,0.0*31
$GPRMC,030738.000,A,3158.793,S,11549.069,E,0.00,0.00,070415,,*13
$GPGGA,030738.000,3158.793,S,11549.069,E,1,00,1.2,0.000,M,0.0,M,,*78
$GPGSA,A,3,,,,,,,,,,,,,0.0,1.2,0.0*31
$GPRMC,030738.000,A,3158.793,S,11549.069,E,0.00,0.00,070415,,*13
$GPGGA,030738.000,3158.793,S,11549.069,E,1,00,1.2,0.000,M,0.0,M,,*78
$GPGSA,A,3,,,,,,,,,,,,,0.0,1.2,0.0*31
$GPRMC,030739.000,A,3158.793,S,11549.069,E,0.00,0.00,070415,,*12
$GPGGA,030739.000,3158.793,S,11549.069,E,1,00,0.9,0.000,M,0.0,M,,*73
$GPGSA,A,3,,,,,,,,,,,,,0.0,0.9,0.0*3B
$GPRMC,030739.000,A,3158.793,S,11549.069,E,0.00,0.00,070415,,*12
$GPGGA,030739.000,3158.793,S,11549.069,E,1,00,0.9,0.000,M,0.0,M,,*73
$GPGSA,A,3,,,,,,,,,,,,,0.0,0.9,0.0*3B
$GPRMC,030739.000,A,3158.793,S,11549.069,E,0.00,0.00,070415,,*12
$GPGGA,030739.000,3158.793,S,11549.069,E,1,00,0.9,0.000,M,0.0,M,,*73
$GPGSA,A,3,,,,,,,,,,,,,0.0,0.9,0.0*3B
$GPRMC,030739.000,A,3158.793,S,11549.069,E,0.00,0.00,070415,,*12
$GPGGA,030739.000,3158.793,S,11549.069,E,1,00,0.9,0.000,M,0.0,M,,*73
$GPGSA,A,3,,,,,,,,,,,,,0.0,0.9,0.0*3B
$GPRMC,030739.000,A,3158.793,S,11549.069,E,0.00,0.00,070415,,*12
$GPGGA,030739.000,3158.793,S,11549.069,E,1,00,0.9,0.000,M,0.0,M,,*73
$GPGSA,A,3,,,,,,,,,,,,,0.0,0.9,0.0*3B
$GPRMC,030740.000,A,3158.793,S,11549.069,E,0.00,0.00,070415,,*1C
$GPGGA,030740.000,3158.793,S,11549.069,E,1,00,0.9,0.000,M,0.0,M,,*7D
$GPGSA,A,3,,,,,,,,,,,,,0.0,0.9,0.0*3B
$GPRMC,030740.000,A,3158.793,S,11549.069,E,0.00,0.00,070415,,*1C
$GPGGA,030740.000,3158.793,S,11549.069,E,1,00,0.9,0.000,M,0.0,M,,*7D
$GPGSA,A,3,,,,,,,,,,,,,0.0,0.9,0.0*3B
$GPRMC,030740.000,A,3158.793,S,11549.069,E,0.00,0.00,070415,,*1C
$GPGGA,030740.000,3158.793,S,11549.069,E,1,00,0.9,0.000,M,0.0,M,,*7D
$GPGSA,A,3,,,,,,,,,,,,,0.0,0.9,0.0*3B
$GPRMC,030740.000,A,3158.793,S,11549.069,E,0.00,0.00,070415,,*1C
$GPGGA,030740.000,3158.793,S,11549.069,E,1,00,0.9,0.000,M,0.0,M,,*7D
$GPGSA,A,3,,,,,,,,,,,,,0.0,0.9,0.0*3B
$GPRMC,030740.000,A,3158.793,S,11549.069,E,0.00,0.00,070415,,*1C
$GPGGA,030740.000,3158.793,S,11549.069,E,1,00,1.2,0.000,M,0.0,M,,*77
$GPGSA,A,3,,,,,,,,,,,,,0.0,1.2,0.0*31
$GPRMC,030740.000,A,3158.793,S,11549.069,E,0.00,0.00,070415,,*1C
$GPGGA,030740.000,3158.793,S,11549.069,E,1,00,1.2,0.000,M,0.0,M,,*77
$GPGSA,A,3,,,,,,,,,,,,,0.0,1.2,0.0*31
$GPRMC,030741.000,A,3158.793,S,11549.069,E,0.00,0.00,070415,,*1D
$GPGGA,030741.000,3158.793,S,11549.069,E,1,00,1.2,0.000,M,0.0,M,,*76
$GPGSA,A,3,,,,,,,,,,,,,0.0,1.2,0.0*31
$GPRMC,030741.000,A,3158.793,S,11549.069,E,0.00,0.00,070415,,*1D
$GPGGA,030741.000,3158.793,S,11549.069,E,1,00,1.2,0.000,M,0.0,M,,*76
$GPGSA,A,3,,,,,,,,,,,,,0.0,1.2,0.0*31
$GPRMC,030741.000,A,3158.793,S,11549.069,E,0.00,0.00,070415,,*1D
$GPGGA,030741.000,3158.793,S,11549.069,E,1,00,1.2,0.000,M,0.0,M,,*76
$GPGSA,A,3,,,,,,,,,,,,,0.0,1.2,0.0*31
$GPRMC,030741.000,A,3158.793,S,11549.069,E,0.00,0.00,070415,,*1D
$GPGGA,030741.000,3158.793,S,11549.069,E,1,00,0.9,0.000,M,0.0,M,,*7C
$GPGSA,A,3,,,,,,,,,,,,,0.0,0.9,0.0*3B
$GPRMC,030741.000,A,3158.793,S,11549.069,E,0.00,0.00,070415,,*1D
$GPGGA,030741.000,3158.793,S,11549.069,E,1,00,0.9,0.000,M,0.0,M,,*7C
$GPGSA,A,3,,,,,,,,,,,,,0.0,0.9,0.0*3B
$GPRMC,030742.000,A,3158.793,S,11549.069,E,0.00,0.00,070415,,*1E
$GPGGA,030742.000,3158.793,S,11549.069,E,1,00,0.9,0.000,M,0.0,M,,*7F
$GPGSA,A,3,,,,,,,,,,,,,0.0,0.9,0.0*3B
$GPRMC,030742.000,A,3158.793,S,11549.069,E,0.00,0.00,070415,,*1E
$GPGGA,030742.000,3158.793,S,11549.069,E,1,00,0.9,0.000,M,0.0,M,,*7F
$GPGSA,A,3,,,,,,,,,,,,,0.0,0.9,0.0*3B
$GPRMC,030742.000,A,3158.793,S,11549.069,E,0.00,0.00,070415,,*1E
$GPGGA,030742.000,3158.793,S,11549.069,E,1,00,0.9,0.000,M,0.0,M,,*7F
$GPGSA,A,3,,,,,,,,,,,,,0.0,0.9,0.0*3B
$GPRMC,030742.000,A,3158.793,S,11549.069,E,0.00,0.00,070415,,*1E
$GPGGA,030742.000,3158.793,S,11549.069,E,1,00,0.9,0.000,M,0.0,M,,*7F
$GPGSA,A,3,,,,,,,,,,,,,0.0,0.9,0.0*3B
$GPRMC,030742.000,A,3158.793,S,11549.069,E,0.00,0.00,070415,,*1E
$GPGGA,030742.000,3158.793,S,11549.069,E,1,00,1.2,0.000,M,0.0,M,,*75
$GPGSA,A,3,,,,,,,,,,,,,0.0,1.2,0.0*31
$GPRMC,030742.000,A,3158.793,S,11549.069,E,0.00,0.00,070415,,*1E
$GPGGA,030742.000,3158.793,S,11549.069,E,1,00,0.9,0.000,M,0.0,M,,*7F
$GPGSA,A,3,,,,,,,,,,,,,0.0,0.9,0.0*3B
$GPRMC,030743.000,A,3158.793,S,11549.069,E,0.00,0.00,070415,,*1F
$GPGGA,030743.000,3158.793,S,11549.069,E,1,00,0.9,0.000,M,0.0,M,,*7E
$GPGSA,A,3,,,,,,,,,,,,,0.0,0.9,0.0*3B
$GPRMC,030743.000,A,3158.793,S,11549.069,E,0.00,0.00,070415,,*1F
$GPGGA,030743.000,3158.793,S,11549.069,E,1,00,1.2,0.000,M,0.0,M,,*74
$GPGSA,A,3,,,,,,,,,,,,,0.0,1.2,0.0*31
$GPRMC,030743.000,A,3158.793,S,11549.069,E,0.00,0.00,070415,,*1F
$GPGGA,030743.000,3158.793,S,11549.069,E,1,00,1.2,0.000,M,0.0,M,,*74
$GPGSA,A,3,,,,,,,,,,,,,0.0,1.2,0.0*31
$GPRMC,030743.000,A,3158.793,S,11549.069,E,0.00,0.00,070415,,*1F
$GPGGA,030743.000,3158.793,S,11549.069,E,1,00,1.2,0.000,M,0.0,M,,*74
$GPGSA,A,3,,,,,,,,,,,,,0.0,1.2,0.0*31
$GPRMC,030743.000,A,3158.793,S,11549.069,E,0.00,0.00,070415,,*1F
$GPGGA,030743.000,3158.793,S,11549.069,E,1,00,0.9,0.000,M,0.0,M,,*7E
$GPGSA,A,3,,,,,,,,,,,,,0.0,0.9,0.0*3B
$GPRMC,030744.000,A,3158.793,S,11549.069,E,0.00,0.00,070415,,*18
$GPGGA,030744.000,3158.793,S,11549.069,E,1,00,0.9,0.000,M,0.0,M,,*79
$GPGSA,A,3,,,,,,,,,,,,,0.0,0.9,0.0*3B
$GPRMC,030744.000,A,3158.793,S,11549.069,E,0.00,0.00,070415,,*18
$GPGGA,030744.000,3158.793,S,11549.069,E,1,00,0.9,0.000,M,0.0,M,,*79
$GPGSA,A,3,,,,,,,,,,,,,0.0,0.9,0.0*3B
$GPRMC,030744.000,A,3158.793,S,11549.069,E,0.00,0.00,070415,,*18
$GPGGA,030744.000,3158.793,S,11549.069,E,1,00,0.9,0.000,M,0.0,M,,*79
$GPGSA,A,3,,,,,,,,,,,,,0.0,0.9,0.0*3B
$GPRMC,030744.000,A,3158.793,S,11549.069,E,0.00,0.00,070415,,*18
$GPGGA,030744.000,3158.793,S,11549.069,E,1,00,1.2,0.000,M,0.0,M,,*73
$GPGSA,A,3,,,,,,,,,,,,,0.0,1.2,0.0*31
$GPRMC,030744.000,A,3158.793,S,11549.069,E,0.00,0.00,070415,,*18
$GPGGA,030744.000,3158.793,S,11549.069,E,1,00,1.2,0.000,M,0.0,M,,*73
$GPGSA,A,3,,,,,,,,,,,,,0.0,1.2,0.0*31
$GPRMC,030744.000,A,3158.793,S,11549.069,E,0.00,0.00,070415,,*18
$GPGGA,030744.000,3158.793,S,11549.069,E,1,00,1.2,0.000,M,0.0,M,,*73
$GPGSA,A,3,,,,,,,,,,,,,0.0,1.2,0.0*31
$GPRMC,030745.000,A,3158.793,S,11549.069,E,0.00,0.00,070415,,*19
$GPGGA,030745.000,3158.793,S,11549.069,E,1,00,0.9,0.000,M,0.0,M,,*78
$GPGSA,A,3,,,,,,,,,,,,,0.0,0.9,0.0*3B
$GPRMC,030745.000,A,3158.793,S,11549.069,E,0.00,0.00,070415,,*19
$GPGGA,030745.000,3158.793,S,11549.069,E,1,00,0.9,0.000,M,0.0,M,,*78
$GPGSA,A,3,,,,,,,,,,,,,0.0,0.9,0.0*3B
$GPRMC,030745.000,A,3158.793,S,11549.069,E,0.00,0.00,070415,,*19
$GPGGA,030745.000,3158.793,S,11549.069,E,1,00,0.9,0.000,M,0.0,M,,*78
$GPGSA,A,3,,,,,,,,,,,,,0.0,0.9,0.0*3B
$GPRMC,030745.000,A,3158.793,S,11549.069,E,0.00,0.00,070415,,*19
$GPGGA,030745.000,3158.793,S,11549.069,E,1,00,0.9,0.000,M,0.0,M,,*78
$GPGSA,A,3,,,,,,,,,,,,,0.0,0.9,0.0*3B
$GPRMC,030745.000,A,3158.793,S,11549.069,E,0.00,0.00,070415,,*19
$GPGGA,030745.000,3158.793,S,11549.069,E,1,00,0.9,0.000,M,0.0,M,,*78
$GPGSA,A,3,,,,,,,,,,,,,0.0,0.9,0.0*3B
$GPRMC,030746.000,A,3158.793,S,11549.069,E,0.00,0.00,070415,,*1A
$GPGGA,030746.000,3158.793,S,11549.069,E,1,00,0.9,0.000,M,0.0,M,,*7B
$GPGSA,A,3,,,,,,,,,,,,,0.0,0.9,0.0*3B
$GPRMC,030746.000,A,3158.793,S,11549.069,E,0.00,0.00,070415,,*1A
$GPGGA,030746.000,3158.793,S,11549.069,E,1,00,0.9,0.000,M,0.0,M,,*7B
$GPGSA,A,3,,,,,,,,,,,,,0.0,0.9,0.0*3B
$GPRMC,030746.000,A,3158.793,S,11549.069,E,0.00,0.00,070415,,*1A
$GPGGA,030746.000,3158.793,S,11549.069,E,1,00,0.9,0.000,M,0.0,M,,*7B
$GPGSA,A,3,,,,,,,,,,,,,0.0,0.9,0.0*3B
$GPRMC,030746.000,A,3158.793,S,11549.069,E,0.00,0.00,070415,,*1A
$GPGGA,030746.000,3158.793,S,11549.069,E,1,00,0.9,0.000,M,0.0,M,,*7B
$GPGSA,A,3,,,,,,,,,,,,,0.0,0.9,0.0*3B
$GPRMC,030746.000,A,3158.793,S,11549.069,E,0.00,0.00,070415,,*1A
$GPGGA,030746.000,3158.793,S,11549.069,E,1,00,0.9,0.000,M,0.0,M,,*7B
$GPGSA,A,3,,,,,,,,,,,,,0.0,0.9,0.0*3B
$GPRMC,030746.000,A,3158.793,S,11549.069,E,0.00,0.00,070415,,*1A
